Name,Price,Provider,Review,Rating,Link,Wifi,Breakfast,Parking,Restaurant,StreetAddress,ExtendedAddress,Locality,Latitude,Longitude
Kantipur Temple House, 6762,Booking.com,889,4.5,https://www.tripadvisor.com/Hotel_-g293890-d338257--Kantipur_Temple_House-Kathmandu_Kathmandu_Valley_Bagmati_Zone_Central_Region.html,true,false,false,true,"Chusyabahal, Jyatha Tol",Thamel,"Kathmandu 44600, ",27.711352,85.313079
Dwarika's Hotel, 26310,Booking.com,"1,195",4.5,https://www.tripadvisor.com/Hotel_-g293890-d310327--Dwarika_s_Hotel-Kathmandu_Kathmandu_Valley_Bagmati_Zone_Central_Region.html,false,false,false,true,Battisputali Rd, ,"Kathmandu 44600, ",27.7060988,85.3424749
Hotel Encounter Nepal, 2334,Booking.com,"1,069",4.5,https://www.tripadvisor.com/Hotel_-g293890-d550028--Hotel_Encounter_Nepal-Kathmandu_Kathmandu_Valley_Bagmati_Zone_Central_Region.html,true,false,true,false,Samakhusi Marg,"Thamel, Galkopakha","Kathmandu 44600, ",27.7187797,85.3122899
Trekkers' Home, 714,Booking.com,762,4.5,https://www.tripadvisor.com/Hotel_-g293890-d4341873--Trekkers_Home-Kathmandu_Kathmandu_Valley_Bagmati_Zone_Central_Region.html,true,false,false,true,Thamel, ,"Kathmandu 44600, ",27.7153902,85.3123293
Hyatt Regency Kathmandu, 13703,Booking.com,"1,783",4.5,https://www.tripadvisor.com/Hotel_-g293890-d305970--Hyatt_Regency_Kathmandu-Kathmandu_Kathmandu_Valley_Bagmati_Zone_Central_Region.html,false,false,true,false, ,"Taragaon, Boudha","Kathmandu 9609, ",27.721998,85.357229
Hotel Shambala, 8544,Expedia,494,4.5,https://www.tripadvisor.com/Hotel_-g293890-d5970335--Hotel_Shambala-Kathmandu_Kathmandu_Valley_Bagmati_Zone_Central_Region.html,true,false,true,false,Bansbari Road,"Near Narayan Gopal Chowk, Maharajgunj","Kathmandu 44606, ",27.7414136,85.3383773
Kathmandu Guest House, 5001,Expedia,"1,388",4,https://www.tripadvisor.com/Hotel_-g293890-d308288--Kathmandu_Guest_House-Kathmandu_Kathmandu_Valley_Bagmati_Zone_Central_Region.html,true,true,false,false,"no. 16 KGH Square, Ward", ,"Kathmandu 44600, ",27.7151329,85.3100489
Shree Tibet Family Guest House, 802,Booking.com,451,4.5,https://www.tripadvisor.com/Hotel_-g293890-d1224300--Shree_Tibet_Family_Guest_House-Kathmandu_Kathmandu_Valley_Bagmati_Zone_Central_Region.html,true,false,false,false,133 Thamel Bhagwati Marg,P.O.Box: 9299,"Kathmandu 44600, ",27.6919405,85.2945882
Hotel Family Home, 1032,TripAdvisor,617,4.5,https://www.tripadvisor.com/Hotel_-g293890-d2078030--Hotel_Family_Home-Kathmandu_Kathmandu_Valley_Bagmati_Zone_Central_Region.html,true,false,false,false,"Ashok Galli Jytha, Thamel", ,"Kathmandu 977, ",27.7121268,85.3112171
Hotel Silver Home, 1061,Expedia,731,4.5,https://www.tripadvisor.com/Hotel_-g293890-d1539095--Hotel_Silver_Home-Kathmandu_Kathmandu_Valley_Bagmati_Zone_Central_Region.html,true,true,false,false,"Thamel, Chibahal", ,"Kathmandu 00977, ",27.7132956,85.3111405
Hotel Friends Home, 2381,Booking.com,"1,402",5,https://www.tripadvisor.com/Hotel_-g293890-d3861343--Hotel_Friends_Home-Kathmandu_Kathmandu_Valley_Bagmati_Zone_Central_Region.html,true,true,false,false, ,"Chhushya Galli, Jyatha Road, Kantipur temple house is next to us.","Kathmandu 4600, ",27.711352,85.313079
OYO 11477 Backyard Hotel, 1830,Expedia,639,4.5,https://www.tripadvisor.com/Hotel_-g293890-d2039307--OYO_11477_Backyard_Hotel-Kathmandu_Kathmandu_Valley_Bagmati_Zone_Central_Region.html,true,true,false,false,"Chibihal Street, Thamel",Thamel,"Kathmandu 44600, ",27.713192,85.311337
Kantipur Temple House, 6762,Booking.com,889,4.5,https://www.tripadvisor.com/Hotel_-g293890-d338257--Kantipur_Temple_House-Kathmandu_Kathmandu_Valley_Bagmati_Zone_Central_Region.html,true,false,false,true,"Chusyabahal, Jyatha Tol",Thamel,"Kathmandu 44600, ",27.711352,85.313079
Gokarna Forest Resort, 12183,Expedia,971,4.5,https://www.tripadvisor.com/Hotel_-g293890-d412080--Gokarna_Forest_Resort-Kathmandu_Kathmandu_Valley_Bagmati_Zone_Central_Region.html,false,true,true,false,Rajnikunj Gokarna, ,"Kathmandu 44600, ",27.7266369,85.3982869
Fairfield by Marriott Kathmandu, 8336,Booking.com,210,4.5,https://www.tripadvisor.com/Hotel_-g293890-d12182022--Fairfield_by_Marriott_Kathmandu-Kathmandu_Kathmandu_Valley_Bagmati_Zone_Central_Regio.html,true,false,true,false,Tridevi Marg,"KMC- 29, Thamel","Kathmandu 44600, ",27.7139661,85.3138562
Hotel Ganesh Himal, 2515,Booking.com,685,4.5,https://www.tripadvisor.com/Hotel_-g293890-d799255--Hotel_Ganesh_Himal-Kathmandu_Kathmandu_Valley_Bagmati_Zone_Central_Region.html,true,false,false,true,Chhetrapati,Chhetrapati,"Kathmandu 44600, ",27.7112473,85.3087748
Hotel Osho Home, 2170,Booking.com,455,5,https://www.tripadvisor.com/Hotel_-g293890-d7208497--Hotel_Osho_Home-Kathmandu_Kathmandu_Valley_Bagmati_Zone_Central_Region.html,true,true,false,false,Chhusya Galli,"Jyatha, Thamel","Kathmandu 44600, ",27.7115146,85.3131268
Hotel Mulberry, 11447,Expedia,104,5,https://www.tripadvisor.com/Hotel_-g293890-d12294192--Hotel_Mulberry-Kathmandu_Kathmandu_Valley_Bagmati_Zone_Central_Region.html,true,false,true,false,"Jyatha, Thamel", ,"Kathmandu 44600, ",27.7117549,85.3129755
The Sparkling Turtle Backpackers Hostel, 1237,Booking.com,234,4.5,https://www.tripadvisor.com/Hotel_-g293890-d2258723--The_Sparkling_Turtle_Backpackers_Hostel-Kathmandu_Kathmandu_Valley_Bagmati_Zone_Centra.html,true,true,false,false,15 Swoyambhu,Buddha Park,"Kathmandu 44600, ",27.7147791,85.2903796
Oasis Kathmandu Hotel, 3699,Booking.com,517,5,https://www.tripadvisor.com/Hotel_-g293890-d12473656--Oasis_Kathmandu_Hotel-Kathmandu_Kathmandu_Valley_Bagmati_Zone_Central_Region.html,true,false,true,false,Keshar Mahal Marg,Thamel,"Kathmandu 44600, ",27.7149246,85.3140593
Kathmandu Eco Hotel, 3039,Booking.com,784,5,https://www.tripadvisor.com/Hotel_-g293890-d3656307--Kathmandu_Eco_Hotel-Kathmandu_Kathmandu_Valley_Bagmati_Zone_Central_Region.html,true,true,false,false,Thamel, ,"Kathmandu 44600, ",27.7153902,85.3123293
Hotel Moonlight, 5112,Expedia,304,4.5,https://www.tripadvisor.com/Hotel_-g293890-d654253--Hotel_Moonlight-Kathmandu_Kathmandu_Valley_Bagmati_Zone_Central_Region.html,true,false,true,false,"Paknajol, Thamel", ,"Kathmandu 6667, ",27.716776,85.308618
Pilgrims Guest House, 1489,Booking.com,443,4.5,https://www.tripadvisor.com/Hotel_-g293890-d1490368--Pilgrims_Guest_House-Kathmandu_Kathmandu_Valley_Bagmati_Zone_Central_Region.html,true,false,true,false,"Thamel, Lekhnath Marg","Kathmandu, Nepal","Kathmandu 19549, ",27.717805,85.311344
Aria Boutique Hotel & Spa, 4784,Expedia,324,4.5,https://www.tripadvisor.com/Hotel_-g293890-d3726483--Aria_Boutique_Hotel_Spa-Kathmandu_Kathmandu_Valley_Bagmati_Zone_Central_Region.html,true,true,false,false,"JP Road, Thamel",Thamel,"Kathmandu 44600, ",27.7119715,85.3097835
Alpine Hotel & Apartment, 1893,Expedia,359,5,https://www.tripadvisor.com/Hotel_-g293890-d6996491--Alpine_Hotel_Apartment-Kathmandu_Kathmandu_Valley_Bagmati_Zone_Central_Region.html,true,true,false,false,Chaksibari Marg,Thamel,"Kathmandu 44600, ",27.7151898,85.3103681
Hotel Horizon, 1306,Booking.com,188,4.5,https://www.tripadvisor.com/Hotel_-g293890-d2572772--Hotel_Horizon-Kathmandu_Kathmandu_Valley_Bagmati_Zone_Central_Region.html,true,false,true,false,16 J.P. Road Chaksibarimarga,Thamel,"Kathmandu 44600, ",27.712696,85.3096318
Aryatara Kathmandu Hotel, 3391,Booking.com,639,5,https://www.tripadvisor.com/Hotel_-g293890-d7614463--Aryatara_Kathmandu_Hotel-Kathmandu_Kathmandu_Valley_Bagmati_Zone_Central_Region.html,true,false,true,false,Keshar Mahal Marg,Thamel,"Kathmandu 44600, ",27.7149246,85.3140593
Kathmandu Boutique Hotel, 1189,Expedia,392,5,https://www.tripadvisor.com/Hotel_-g293890-d7165990--Kathmandu_Boutique_Hotel-Kathmandu_Kathmandu_Valley_Bagmati_Zone_Central_Region.html,true,true,false,false, , ,"Kathmandu 00977, ",27.7172453,85.3239605
Thamel Eco Resort, 3101,Expedia,394,4,https://www.tripadvisor.com/Hotel_-g293890-d2081408--Thamel_Eco_Resort-Kathmandu_Kathmandu_Valley_Bagmati_Zone_Central_Region.html,true,true,false,false,"Chibahal, Thamel", ,"Kathmandu 44600, ",27.7132956,85.3111405
Kathmandu Grand Hotel, 3313,Booking.com,889,4.5,https://www.tripadvisor.com/Hotel_-g293890-d1224154--Kathmandu_Grand_Hotel-Kathmandu_Kathmandu_Valley_Bagmati_Zone_Central_Region.html,true,true,false,false,Chaksibari Marg,Thamel,"Kathmandu 10866, ",27.7151898,85.3103681
Hotel Mums Home Pvt Ltd, 2644,Booking.com,827,5,https://www.tripadvisor.com/Hotel_-g293890-d5484795--Hotel_Mums_Home_Pvt_Ltd-Kathmandu_Kathmandu_Valley_Bagmati_Zone_Central_Region.html,true,false,true,false,"Chhusya Galli, Jyatha, Thamel",next to Kantipur Temple house,"Kathmandu 44600, ",27.711352,85.313079
Kantipur Temple House, 6762,Booking.com,889,4.5,https://www.tripadvisor.com/Hotel_-g293890-d338257--Kantipur_Temple_House-Kathmandu_Kathmandu_Valley_Bagmati_Zone_Central_Region.html,true,false,false,true,"Chusyabahal, Jyatha Tol",Thamel,"Kathmandu 44600, ",27.7118151,85.3131469
Hotel Horizon, 1306,Booking.com,188,4.5,https://www.tripadvisor.com/Hotel_-g293890-d2572772--Hotel_Horizon-Kathmandu_Kathmandu_Valley_Bagmati_Zone_Central_Region.html,true,false,true,false,16 J.P. Road Chaksibarimarga,Thamel,"Kathmandu 44600, ",27.711222,85.312873
Hotel Mi Casa, 4746,Booking.com,549,5,https://www.tripadvisor.com/Hotel_-g293890-d6216125--Hotel_Mi_Casa-Kathmandu_Kathmandu_Valley_Bagmati_Zone_Central_Region.html,true,true,false,false,"Thamel-29, Tridevi Marg", ,"Kathmandu 44600, ",27.7139661,85.3138562
Hotel The Great Wall, 1420,Expedia,192,4.5,https://www.tripadvisor.com/Hotel_-g293890-d1674237--Hotel_The_Great_Wall-Kathmandu_Kathmandu_Valley_Bagmati_Zone_Central_Region.html,true,false,false,true,Thamel Marg,Next to Hotel Backyard,"Kathmandu 977, ",27.7177006,85.3101486
Hotel Ganesh Himal, 2515,Booking.com,685,4.5,https://www.tripadvisor.com/Hotel_-g293890-d799255--Hotel_Ganesh_Himal-Kathmandu_Kathmandu_Valley_Bagmati_Zone_Central_Region.html,true,false,false,true,Chhetrapati,Chhetrapati,"Kathmandu 44600, ",27.7112473,85.3087748
Kathmandu Madhuban Guest House, 1058,Booking.com,345,4.5,https://www.tripadvisor.com/Hotel_-g293890-d457094--Kathmandu_Madhuban_Guest_House-Kathmandu_Kathmandu_Valley_Bagmati_Zone_Central_Region.html,true,false,true,false,Pakanajol Road,Thamel,"Kathmandu 44600, ",27.712653,85.308762
Khangsar Guest House, 927,Booking.com,538,4.5,https://www.tripadvisor.com/Hotel_-g293890-d1229568--Khangsar_Guest_House-Kathmandu_Kathmandu_Valley_Bagmati_Zone_Central_Region.html,true,false,false,true, ,Chhetrapati,"Kathmandu 25451, ",27.7112473,85.3087748
Dalai-La Boutique Hotel, 10936,Expedia,650,5,https://www.tripadvisor.com/Hotel_-g293890-d7138276--Dalai_La_Boutique_Hotel-Kathmandu_Kathmandu_Valley_Bagmati_Zone_Central_Region.html,true,true,false,false,Chaksibari Marg,Thamel,"Kathmandu 44600, ",27.7151898,85.3103681
Hotel Encounter Nepal, 2330,Expedia,"1,069",4.5,https://www.tripadvisor.com/Hotel_-g293890-d550028--Hotel_Encounter_Nepal-Kathmandu_Kathmandu_Valley_Bagmati_Zone_Central_Region.html,true,false,true,false,Samakhusi Marg,"Thamel, Galkopakha","Kathmandu 44600, ",27.7187797,85.3122899
Ambassador Garden Home, 4131,Booking.com,715,4.5,https://www.tripadvisor.com/Hotel_-g293890-d1423502--Ambassador_Garden_Home-Kathmandu_Kathmandu_Valley_Bagmati_Zone_Central_Region.html,true,true,false,false,Thamel, ,"Kathmandu 9681, ",27.7153902,85.3123293
Shree Tibet Family Guest House, 802,Booking.com,451,4.5,https://www.tripadvisor.com/Hotel_-g293890-d1224300--Shree_Tibet_Family_Guest_House-Kathmandu_Kathmandu_Valley_Bagmati_Zone_Central_Region.html,true,false,false,false,133 Thamel Bhagwati Marg,P.O.Box: 9299,"Kathmandu 44600, ",27.6919405,85.2945882
Royal Penguin Boutique Hotel & Spa, 5292,Booking.com,240,4.5,https://www.tripadvisor.com/Hotel_-g293890-d6468896--Royal_Penguin_Boutique_Hotel_Spa-Kathmandu_Kathmandu_Valley_Bagmati_Zone_Central_Regio.html,true,true,false,false,Thamel, ,"Kathmandu 44600, ",27.7153902,85.3123293
Hotel Moonlight, 5112,Expedia,304,4.5,https://www.tripadvisor.com/Hotel_-g293890-d654253--Hotel_Moonlight-Kathmandu_Kathmandu_Valley_Bagmati_Zone_Central_Region.html,true,false,true,false,"Paknajol, Thamel", ,"Kathmandu 6667, ",27.716776,85.308618
Hotel Florid Nepal, 1780,Booking.com,194,4.5,https://www.tripadvisor.com/Hotel_-g293890-d632769--Hotel_Florid_Nepal-Kathmandu_Kathmandu_Valley_Bagmati_Zone_Central_Region.html,true,false,false,true,"Z-Street, Thamel", ,"Kathmandu 44600, ",27.7167975,85.3095476
Hotel Pilgrims Pvt. Ltd., 2631,Booking.com,209,4.5,https://www.tripadvisor.com/Hotel_-g293890-d5113587--Hotel_Pilgrims_Pvt_Ltd-Kathmandu_Kathmandu_Valley_Bagmati_Zone_Central_Region.html,true,false,false,true,Z Street,Thamel,"Kathmandu 44600, ",27.7167975,85.3095476
Hotel Yala Peak, 871,Expedia,177,4.5,https://www.tripadvisor.com/Hotel_-g293890-d4799362--Hotel_Yala_Peak-Kathmandu_Kathmandu_Valley_Bagmati_Zone_Central_Region.html,true,false,false,true,"Thamel-12, Kawabahal", ,"Kathmandu 44600, ",27.7153902,85.3123293
The Sparkling Turtle Backpackers Hostel, 1237,Booking.com,234,4.5,https://www.tripadvisor.com/Hotel_-g293890-d2258723--The_Sparkling_Turtle_Backpackers_Hostel-Kathmandu_Kathmandu_Valley_Bagmati_Zone_Centra.html,true,true,false,false,15 Swoyambhu,Buddha Park,"Kathmandu 44600, ",27.7147791,85.2903796
Kathmandu City Hotel, 2381,Expedia,243,4.5,https://www.tripadvisor.com/Hotel_-g293890-d5894519--Kathmandu_City_Hotel-Kathmandu_Kathmandu_Valley_Bagmati_Zone_Central_Region.html,true,true,false,false,Ward No 29 Bhagwatimarga,Thamel,"Kathmandu 44600, ",27.7184512,85.3150889
Hotel Happy Home, 1724,Booking.com,536,4.5,https://www.tripadvisor.com/Hotel_-g293890-d3914005--Hotel_Happy_Home-Kathmandu_Kathmandu_Valley_Bagmati_Zone_Central_Region.html,true,true,false,false,"17, JP Road Thamel", ,"Kathmandu 10356, ",27.7119715,85.3097835
Famous House Kathmandu Youth Hostel, 1995,Booking.com,225,5,https://www.tripadvisor.com/Hotel_-g293890-d7640322--Famous_House_Kathmandu_Youth_Hostel-Kathmandu_Kathmandu_Valley_Bagmati_Zone_Central_Re.html,true,false,true,false,"Golkopakha, Thamel", ,"Kathmandu 44600, ",27.7184153,85.3123722
Tibet Peace Inn, 1552,Booking.com,378,5,https://www.tripadvisor.com/Hotel_-g293890-d7360353--Tibet_Peace_Inn-Kathmandu_Kathmandu_Valley_Bagmati_Zone_Central_Region.html,true,true,false,false, ,"Paknajol, Thamel","Kathmandu 44600, ",27.7180528,85.3083658
Hostel Fireflies, 679,Booking.com,139,4.5,https://www.tripadvisor.com/Hotel_-g293890-d7185888--Hostel_Fireflies-Kathmandu_Kathmandu_Valley_Bagmati_Zone_Central_Region.html,true,false,false,true,"No. 179 Paknajol Marg, House",Ward No.16 next to Nilgiri Public School,"Kathmandu 44600, ",27.7173073,85.3082693
Hotel Bliss International, 2822,Booking.com,296,4.5,https://www.tripadvisor.com/Hotel_-g293890-d7185178--Hotel_Bliss_International-Kathmandu_Kathmandu_Valley_Bagmati_Zone_Central_Region.html,true,false,true,false,Chhusya Galli,"Jyatha, Thamel","Kathmandu 44600, ",27.7166881,85.3086914
Stupa Guest House and Restaurant, 744,Booking.com,169,4.5,https://www.tripadvisor.com/Hotel_-g293890-d4816605--Stupa_Guest_House_and_Restaurant-Kathmandu_Kathmandu_Valley_Bagmati_Zone_Central_Regio.html,true,false,false,true,"Thahity, Thamel", ,"Kathmandu 19880, ",27.7107696,85.3108752
Andes House, 1661,Booking.com,291,4.5,https://www.tripadvisor.com/Hotel_-g293890-d7396003--Andes_House-Kathmandu_Kathmandu_Valley_Bagmati_Zone_Central_Region.html,true,true,false,false,"Ga-Hiti Marg, Thamel - 29, Kathmandu", ,"Kathmandu 00977, ",27.7168695,85.3125943
Bodhi Guest House, 1292,Expedia,127,5,https://www.tripadvisor.com/Hotel_-g293890-d7110244--Bodhi_Guest_House-Kathmandu_Kathmandu_Valley_Bagmati_Zone_Central_Region.html,true,true,false,false,16 Boudha,Boudha,"Kathmandu 44600, ",27.7219003,85.3732524
Kathmandu Boutique Hotel, 1189,Expedia,392,5,https://www.tripadvisor.com/Hotel_-g293890-d7165990--Kathmandu_Boutique_Hotel-Kathmandu_Kathmandu_Valley_Bagmati_Zone_Central_Region.html,true,true,false,false, , ,"Kathmandu 00977, ",27.7172453,85.3239605
Potala Tourist Home,1058,Booking.com,128,4.5,https://www.tripadvisor.com/Hotel_-g293890-d3241470--Potala_Tourist_Home-Kathmandu_Kathmandu_Valley_Bagmati_Zone_Central_Region.html,true,false,false,true,Tredevi Marg,Thamel,"Kathmandu 44600, ",27.7139661,85.3138562
Thorong Peak Guest House,2246,Hotels.com,150,4.5,https://www.tripadvisor.com/Hotel_-g293890-d2079042--Thorong_Peak_Guest_House-Kathmandu_Kathmandu_Valley_Bagmati_Zone_Central_Region.html,true,false,false,true,29 Thamel,Narsingh Chowk,"Kathmandu 44600, ",27.713535,85.3109209
Hotel Atlantic Nepal,1676,Booking.com,129,4.5,https://www.tripadvisor.com/Hotel_-g293890-d7389745--Hotel_Atlantic_Nepal-Kathmandu_Kathmandu_Valley_Bagmati_Zone_Central_Region.html,true,false,true,false,"Tridevi Marg, Thamel, Kathmandu, Nepal", ,"Kathmandu 44600, ",27.7139661,85.3138562
Traditional Comfort, 8414,Expedia,162,5,https://www.tripadvisor.com/Hotel_-g293890-d10591832--Traditional_Comfort-Kathmandu_Kathmandu_Valley_Bagmati_Zone_Central_Region.html,true,true,false,false,Kamalpokhari, ,"Kathmandu 44600, ",27.7111714,85.3255595
Norbulinka Boutique Hotel, 2885,Expedia,266,4.5,https://www.tripadvisor.com/Hotel_-g293890-d457083--Norbulinka_Boutique_Hotel-Kathmandu_Kathmandu_Valley_Bagmati_Zone_Central_Region.html,true,false,true,false,"Hiti Road, Nepal",Thamel,"Kathmandu 44600, ",27.717333,85.312066
Hotel Pilgrims Pvt. Ltd., 2222,Booking.com,209,4.5,https://www.tripadvisor.com/Hotel_-g293890-d5113587--Hotel_Pilgrims_Pvt_Ltd-Kathmandu_Kathmandu_Valley_Bagmati_Zone_Central_Region.html,true,false,false,true,Z Street,Thamel,"Kathmandu 44600, ",27.7167975,85.3095476
Hotel Jay Suites, 2674,Booking.com,192,4.5,https://www.tripadvisor.com/Hotel_-g293890-d10415830--Hotel_Jay_Suites-Kathmandu_Kathmandu_Valley_Bagmati_Zone_Central_Region.html,true,true,false,false,Chhusya Galli,"Jyatha, Thamel -30","Kathmandu 12486, ",27.7115146,85.3131268
Hotel Florid Nepal, 1389,Booking.com,194,4.5,https://www.tripadvisor.com/Hotel_-g293890-d632769--Hotel_Florid_Nepal-Kathmandu_Kathmandu_Valley_Bagmati_Zone_Central_Region.html,true,false,false,true,"Z-Street, Thamel", ,"Kathmandu 44600, ",27.7167975,85.3095476
Hotel Melungtse, 2646,Booking.com,68,4.5,https://www.tripadvisor.com/Hotel_-g293890-d1793045--Hotel_Melungtse-Kathmandu_Kathmandu_Valley_Bagmati_Zone_Central_Region.html,true,false,true,false, , ,"Kathmandu, ",27.7172453,85.3239605
Hotel Cascade Pvt. Ltd., 3748,Booking.com,36,4,https://www.tripadvisor.com/Hotel_-g293890-d2097839--Hotel_Cascade_Pvt_Ltd-Kathmandu_Kathmandu_Valley_Bagmati_Zone_Central_Region.html,true,false,true,false,Lazimpat, ,"Kathmandu GPO 11450, ",27.7215031,85.3200837
Hotel Excelsior, 2560,Expedia,115,4,https://www.tripadvisor.com/Hotel_-g293890-d338245--Hotel_Excelsior-Kathmandu_Kathmandu_Valley_Bagmati_Zone_Central_Region.html,true,false,false,true,Narsingh Chowk Marg,Narsingh Camp,"Kathmandu 44600, ",27.7137574,85.3111634
Park Village Hotel & Resort, 4454,Expedia,212,4,https://www.tripadvisor.com/Hotel_-g293890-d597120--Park_Village_Hotel_Resort-Kathmandu_Kathmandu_Valley_Bagmati_Zone_Central_Region.html,true,false,true,false, ,Budanil-Kantha,"Kathmandu 44600, ",27.7654382,85.3652959
OYO 102 Alliance Hotel - Pashupatinath Temple, 1814,Expedia,44,4.5,https://www.tripadvisor.com/Hotel_-g293890-d4823726--OYO_102_Alliance_Hotel_Pashupatinath_Temple-Kathmandu_Kathmandu_Valley_Bagmati_Zone_Ce.html,true,false,true,false,Boudha, ,"Kathmandu 44600, ",27.7213539,85.3692628
Mirage Lords Inn Kathmandu, 3919,Expedia,154,4.5,https://www.tripadvisor.com/Hotel_-g293890-d6582704--Mirage_Lords_Inn_Kathmandu-Kathmandu_Kathmandu_Valley_Bagmati_Zone_Central_Region.html,true,false,true,false,310 Battisputali Road,Near Int Airport,"Kathmandu 44600, ",27.7150861,85.3141312
Oasis Kathmandu Hotel, 3681,Booking.com,517,5,https://www.tripadvisor.com/Hotel_-g293890-d12473656--Oasis_Kathmandu_Hotel-Kathmandu_Kathmandu_Valley_Bagmati_Zone_Central_Region.html,true,false,true,false,Keshar Mahal Marg,Thamel,"Kathmandu 44600, ",27.7149246,85.3140593
Hotel The Sacred Valley Home, 2441,Expedia,404,4.5,https://www.tripadvisor.com/Hotel_-g293890-d8493924--Hotel_The_Sacred_Valley_Home-Kathmandu_Kathmandu_Valley_Bagmati_Zone_Central_Region.html,true,true,false,false,"Brahmakumari Marg, Jyatha, Thamel", ,"Kathmandu 44600, ",27.7127279,85.3127273
Aryatara Kathmandu Hotel, 2687,Booking.com,639,5,https://www.tripadvisor.com/Hotel_-g293890-d7614463--Aryatara_Kathmandu_Hotel-Kathmandu_Kathmandu_Valley_Bagmati_Zone_Central_Region.html,true,false,true,false,Keshar Mahal Marg,Thamel,"Kathmandu 44600, ",27.7149246,85.3140593
Hotel Kaze Darbar, 5754,Expedia,50,4.5,https://www.tripadvisor.com/Hotel_-g293890-d5075613--Hotel_Kaze_Darbar-Kathmandu_Kathmandu_Valley_Bagmati_Zone_Central_Region.html,true,false,true,false,Kamalpokhari-1, ,"Kathmandu 4529, ",27.712059 85.32695300000002,85.326953
Truly Asia Boutique Hotel, 2134,Booking.com,181,5,https://www.tripadvisor.com/Hotel_-g293890-d12123749--Truly_Asia_Boutique_Hotel-Kathmandu_Kathmandu_Valley_Bagmati_Zone_Central_Region.html,true,true,false,false,J.P Marg,Thamel,"Kathmandu 44600, ",27.7116024,85.3091758
Kasthamandap Boutique Hotel, 3115,Expedia,193,5,https://www.tripadvisor.com/Hotel_-g293890-d8730501--Kasthamandap_Boutique_Hotel-Kathmandu_Kathmandu_Valley_Bagmati_Zone_Central_Region.html,true,true,false,false,"Chhusya Galli, Jyatha, Thamel", ,"Kathmandu 44600, ",27.7115146,85.3131268
DOM Himalaya Hotel, 3418,Booking.com,180,5,https://www.tripadvisor.com/Hotel_-g293890-d12071763--DOM_Himalaya_Hotel-Kathmandu_Kathmandu_Valley_Bagmati_Zone_Central_Region.html,true,false,true,false,Paknajol Marga, ,"Kathmandu 44600, ",27.716686,85.308693
Kathmandu Suite Home, 3423,Agoda.com,85,5,https://www.tripadvisor.com/Hotel_-g293890-d12872972--Kathmandu_Suite_Home-Kathmandu_Kathmandu_Valley_Bagmati_Zone_Central_Region.html,true,true,false,false,Paknajol Marg,Thamel,"Kathmandu 44600, ",27.7149996,85.3085206
Traditional Comfort, 8414,Expedia,162,5,https://www.tripadvisor.com/Hotel_-g293890-d10591832--Traditional_Comfort-Kathmandu_Kathmandu_Valley_Bagmati_Zone_Central_Region.html,true,true,false,false,Kamalpokhari, ,"Kathmandu 44600, ",27.7109806,85.3226499
Kumari Boutique Hotel, 3589,Booking.com,106,5,https://www.tripadvisor.com/Hotel_-g293890-d13592608--Kumari_Boutique_Hotel-Kathmandu_Kathmandu_Valley_Bagmati_Zone_Central_Region.html,true,false,true,false,27 Chhusya Galli Jayatha,Jyatha Thamel,"Kathmandu 44600, ",27.7123358,85.3133324
Kathmandu City Hotel, 2231,Expedia,243,4.5,https://www.tripadvisor.com/Hotel_-g293890-d5894519--Kathmandu_City_Hotel-Kathmandu_Kathmandu_Valley_Bagmati_Zone_Central_Region.html,true,true,false,false,Ward No 29 Bhagwatimarga,Thamel,"Kathmandu 44600, ",27.7184512,85.3150889
Hotel Padma, 4464,Expedia,20,4,https://www.tripadvisor.com/Hotel_-g293890-d325838--Hotel_Padma-Kathmandu_Kathmandu_Valley_Bagmati_Zone_Central_Region.html,true,false,false,true, ,Boudha,"Kathmandu 44600, ",27.7213539,85.3692628
Maya Boutique Hotel, 1998,Booking.com,146,5,https://www.tripadvisor.com/Hotel_-g293890-d11500558--Maya_Boutique_Hotel-Kathmandu_Kathmandu_Valley_Bagmati_Zone_Central_Region.html,true,true,false,false,Thamel, ,"Kathmandu 44600, ",27.7153902,85.3123293
Hotel Mulberry, 11447,Expedia,104,5,https://www.tripadvisor.com/Hotel_-g293890-d12294192--Hotel_Mulberry-Kathmandu_Kathmandu_Valley_Bagmati_Zone_Central_Region.html,true,false,true,false,"Jyatha, Thamel", ,"Kathmandu 44600, ",27.7117549,85.3129755
Hotel Buddy, 4152,Booking.com,83,5,https://www.tripadvisor.com/Hotel_-g293890-d12811837--Hotel_Buddy-Kathmandu_Kathmandu_Valley_Bagmati_Zone_Central_Region.html,true,false,true,false,Amrit Marg,Manang Plaza,"Kathmandu 44600, ",27.7146919,85.3126322
Taleju Boutique Hotel, 3937,Agoda.com,154,4.5,https://www.tripadvisor.com/Hotel_-g293890-d11671092--Taleju_Boutique_Hotel-Kathmandu_Kathmandu_Valley_Bagmati_Zone_Central_Region.html,true,false,true,false,"Chhusya Galli, Jyatha, Thamel", ,"Kathmandu 44600, ",27.7115146,85.3131268
Hotel Mustang Holiday Inn,1504,Hotels.com,31,4,https://www.tripadvisor.com/Hotel_-g293890-d1547555--Hotel_Mustang_Holiday_Inn-Kathmandu_Kathmandu_Valley_Bagmati_Zone_Central_Region.html,false,false,false,true,Jyatha,Thamel,"Kathmandu 6438, ",27.715331,85.30924
Buddha Garden Hotel,1732,Booking.com,59,4,https://www.tripadvisor.com/Hotel_-g293890-d2434113--Buddha_Garden_Hotel-Kathmandu_Kathmandu_Valley_Bagmati_Zone_Central_Region.html,true,false,true,false,"Jyatha, Thamel",Amrit Marg,"Kathmandu 44600, ",27.7117272,85.3129819
Hotel Sunset View,,Booking.com,29,4,https://www.tripadvisor.com/Hotel_-g293890-d316822--Hotel_Sunset_View-Kathmandu_Kathmandu_Valley_Bagmati_Zone_Central_Region.html,true,false,false,true, ,New Baneswor,"Kathmandu 44600, ",27.6915196,85.3420486
Heritage Home Hotel & Guest House, 1764,Expedia,78,4.5,https://www.tripadvisor.com/Hotel_-g293890-d3198868--Heritage_Home_Hotel_Guest_House-Kathmandu_Kathmandu_Valley_Bagmati_Zone_Central_Region.html,true,false,false,true,"Sattghumti, Thamel", ,"Kathmandu 9771, ",27.7153902,85.3123293
Holyland Guest House, 786,Expedia,117,4.5,https://www.tripadvisor.com/Hotel_-g293890-d1108970--Holyland_Guest_House-Kathmandu_Kathmandu_Valley_Bagmati_Zone_Central_Region.html,true,false,true,false,Bhagawati Sthan,29-Thamel,"Kathmandu 21851, ",27.71696,85.3116989
Grand Hotel Kathmandu, 5503,Booking.com,334,4,https://www.tripadvisor.com/Hotel_-g293890-d379295--Grand_Hotel_Kathmandu-Kathmandu_Kathmandu_Valley_Bagmati_Zone_Central_Region.html,false,true,true,false,Red Cross Marg,"Tahachal, Kalimati","Kathmandu 44600, ",27.702476,85.3202699
Hotel Pleasure Home, 2167,Booking.com,127,4,https://www.tripadvisor.com/Hotel_-g293890-d1197559--Hotel_Pleasure_Home-Kathmandu_Kathmandu_Valley_Bagmati_Zone_Central_Region.html,true,true,false,false,"Jyatha Street, Thamel","Amrit Marg 30, Jyatha","Kathmandu 44600, ",27.712425,85.313016
Potala Guest House, 2533,Booking.com,169,4,https://www.tripadvisor.com/Hotel_-g293890-d457095--Potala_Guest_House-Kathmandu_Kathmandu_Valley_Bagmati_Zone_Central_Region.html,true,false,false,true,J.P Road,"Chetrapati, Thamel","Kathmandu 44600, ",27.712251,85.310641
Rama Inn Boutique Home, 4233,Booking.com,78,4.5,https://www.tripadvisor.com/Hotel_-g293890-d5452885--Rama_Inn_Boutique_Home-Kathmandu_Kathmandu_Valley_Bagmati_Zone_Central_Region.html,true,true,false,false,117/40 Lal Durbar Marg, ,"Kathmandu 44600, ",27.7130863,85.3200592
Radisson Hotel Kathmandu, 11767,Expedia,"1,201",4,https://www.tripadvisor.com/Hotel_-g293890-d305973--Radisson_Hotel_Kathmandu-Kathmandu_Kathmandu_Valley_Bagmati_Zone_Central_Region.html,true,false,true,false,Lazimpat, ,"Kathmandu 2269, ",27.7202186,85.3209287
Tibet Guest House, 2469,Expedia,278,3.5,https://www.tripadvisor.com/Hotel_-g293890-d338266--Tibet_Guest_House-Kathmandu_Kathmandu_Valley_Bagmati_Zone_Central_Region.html,true,false,true,false,"Chhetrapati, Thamel", ,"Kathmandu 44600, ",27.7112473,85.3087748
Hotel Melungtse, 2646,Expedia,68,4.5,https://www.tripadvisor.com/Hotel_-g293890-d1793045--Hotel_Melungtse-Kathmandu_Kathmandu_Valley_Bagmati_Zone_Central_Region.html,true,false,true,false, , ,"Kathmandu, ",27.7172453,85.3239605
Park Village Hotel & Resort, 4454,Expedia,212,4,https://www.tripadvisor.com/Hotel_-g293890-d597120--Park_Village_Hotel_Resort-Kathmandu_Kathmandu_Valley_Bagmati_Zone_Central_Region.html,true,false,true,false, ,Budanil-Kantha,"Kathmandu 44600, ",27.7654382,85.3652959
Holy Lodge, 1185,Booking.com,132,4.5,https://www.tripadvisor.com/Hotel_-g293890-d1172373--Holy_Lodge-Kathmandu_Kathmandu_Valley_Bagmati_Zone_Central_Region.html,true,false,false,true,"7 Corner, Thamel", ,"Kathmandu 44600, ",27.7158968,85.3098306
Fuji Hotel, 4104,Booking.com,240,4,https://www.tripadvisor.com/Hotel_-g293890-d598179--Fuji_Hotel-Kathmandu_Kathmandu_Valley_Bagmati_Zone_Central_Region.html,true,false,false,true,"Jyatha, Thamel",P.O. Box 6209,"Kathmandu 44600, ",27.7124215,85.3127754
Hotel Blue Horizon, 1764,Booking.com,459,4,https://www.tripadvisor.com/Hotel_-g293890-d648412--Hotel_Blue_Horizon-Kathmandu_Kathmandu_Valley_Bagmati_Zone_Central_Region.html,true,false,true,false,Thamel,Thamel,"Kathmandu 44600, ",27.7153902,85.3123293
Hotel Temple Inn, 4545,Booking.com,60,4.5,https://www.tripadvisor.com/Hotel_-g293890-d10392738--Hotel_Temple_Inn-Kathmandu_Kathmandu_Valley_Bagmati_Zone_Central_Region.html,true,false,true,false,Gaushala, ,"Kathmandu 44600, ",27.7084959,85.3465697
Samsara Resort, 3558,Expedia,300,4,https://www.tripadvisor.com/Hotel_-g293890-d633635--Samsara_Resort-Kathmandu_Kathmandu_Valley_Bagmati_Zone_Central_Region.html,true,false,true,false,Bhagabati Marga,Thamel,"Kathmandu 00977, ",27.7169323,85.3113859
World Heritage Hotel & Apartments - Dwarika Chhen, 1336,Expedia,63,4.5,https://www.tripadvisor.com/Hotel_-g293890-d4860362--World_Heritage_Hotel_Apartments_Dwarika_Chhen-Kathmandu_Kathmandu_Valley_Bagmati_Zone_.html,true,false,false,true,"Dwarika Chhen, Kathmandu Durbar Square",Maru Pyaphal,"Kathmandu 44600, ",27.7049349,85.3064809
Sankata Hotel and Apartment, 1396,Expedia,86,5,https://www.tripadvisor.com/Hotel_-g293890-d7086111--Sankata_Hotel_and_Apartment-Kathmandu_Kathmandu_Valley_Bagmati_Zone_Central_Region.html,true,false,true,false,29 Thamel, ,"Kathmandu 44600, ",27.7121649,85.3131965
Karma Boutique Hotel, 3363,Booking.com,30,5,https://www.tripadvisor.com/Hotel_-g293890-d12548952--Karma_Boutique_Hotel-Kathmandu_Kathmandu_Valley_Bagmati_Zone_Central_Region.html,true,true,false,false,"Jyatha, Thamel", ,"Kathmandu 44600, ",27.7117549,85.3129755
Baber Mahal Vilas The Boutique Hotel, 10798,Expedia,44,5,https://www.tripadvisor.com/Hotel_-g293890-d11648304--Baber_Mahal_Vilas_The_Boutique_Hotel-Kathmandu_Kathmandu_Valley_Bagmati_Zone_Central_.html,true,false,true,false,Tanka Prasad Ghumti Sadak, ,"Kathmandu 44600, ",27.6966007,85.3281188
Ghangri Boutique Hotel, 4899,Agoda.com,81,5,https://www.tripadvisor.com/Hotel_-g293890-d7368975--Ghangri_Boutique_Hotel-Kathmandu_Kathmandu_Valley_Bagmati_Zone_Central_Region.html,true,false,true,false,Bouddha, ,"Kathmandu 44600, ",27.7119185,85.3128881
The Boudha Inn, 1981,Booking.com,64,4.5,https://www.tripadvisor.com/Hotel_-g293890-d10357187--The_Boudha_Inn-Kathmandu_Kathmandu_Valley_Bagmati_Zone_Central_Region.html,true,false,true,false,"Boudha-6, Ramhiti Chowk", ,"Kathmandu 44600, ",27.7264112,85.3637169
Hotel Gallery Nepal, 1444,Booking.com,65,4.5,https://www.tripadvisor.com/Hotel_-g293890-d11663322--Hotel_Gallery_Nepal-Kathmandu_Kathmandu_Valley_Bagmati_Zone_Central_Region.html,true,true,false,false,"Z-street, Thamel", ,"Kathmandu 44600, ",27.7167975,85.3095476
8848 Hostel, 582,Booking.com,29,5,https://www.tripadvisor.com/Hotel_-g293890-d13109989--8848_Hostel-Kathmandu_Kathmandu_Valley_Bagmati_Zone_Central_Region.html,true,false,false,false,Thahity, ,"Kathmandu 44600, ",27.7107696,85.3108752
Bodhi Boutique Hotel, 3112,Booking.com,34,5,https://www.tripadvisor.com/Hotel_-g293890-d13402441--Bodhi_Boutique_Hotel-Kathmandu_Kathmandu_Valley_Bagmati_Zone_Central_Region.html,true,false,false,false, ,"Chhusya Galli, Jyatha","Kathmandu 44600, ",27.711424,85.3131286
Hotel Yak & Yeti, 14397,Hotel Yak and Yeti,"1,326",4,https://www.tripadvisor.com/Hotel_-g293890-d305977--Hotel_Yak_Yeti-Kathmandu_Kathmandu_Valley_Bagmati_Zone_Central_Region.html,true,false,true,false,Durbar Marg, ,"Kathmandu 44600, ",27.7064565,85.3164261
Hotel Annapurna, 11264,Expedia,599,4,https://www.tripadvisor.com/Hotel_-g293890-d304701--Hotel_Annapurna-Kathmandu_Kathmandu_Valley_Bagmati_Zone_Central_Region.html,true,false,true,false, , ,"Kathmandu 14229, ",27.7172453,85.3239605
Acme Guest House,,Hotels.com,182,4,https://www.tripadvisor.com/Hotel_-g293890-d1196919--Acme_Guest_House-Kathmandu_Kathmandu_Valley_Bagmati_Zone_Central_Region.html,true,false,true,false,Thamel,PO Box 10506,"Kathmandu 10506, ",27.7153902,85.3123293
Hotel Everest Nepal,,Hotels.com,57,5,https://www.tripadvisor.com/Hotel_-g293890-d8647583--Hotel_Everest_Nepal-Kathmandu_Kathmandu_Valley_Bagmati_Zone_Central_Region.html,true,false,true,false,Chhusya Galli,Jyatha,"Kathmandu 00977, ",27.711424,85.3131286
Hotel Himalaya Yoga,,Hotels.com,90,4.5,https://www.tripadvisor.com/Hotel_-g293890-d3748125--Hotel_Himalaya_Yoga-Kathmandu_Kathmandu_Valley_Bagmati_Zone_Central_Region.html,true,false,true,false,"Chaksibari Marg, Thamel", ,"Kathmandu 44600, ",27.7151898,85.3103681
Travellers Dorm Bed & Breakfast,,Hotels.com,57,5,https://www.tripadvisor.com/Hotel_-g293890-d12363058--Travellers_Dorm_Bed_Breakfast-Kathmandu_Kathmandu_Valley_Bagmati_Zone_Central_Region.html,true,false,true,false,Raymajhi Marga,Nirmal Lama Magra,"Kathmandu 44600, ",27.7234677,85.3092723
Traditional Comfort, 10407,Expedia,162,5,https://www.tripadvisor.com/Hotel_-g293890-d10591832--Traditional_Comfort-Kathmandu_Kathmandu_Valley_Bagmati_Zone_Central_Region.html,true,true,false,false,Kamalpokhari, ,"Kathmandu 44600, ",27.7111714,85.3255595
Shangri-La Hotel Kathmandu, 10583,Hotels.com,525,3.5,https://www.tripadvisor.com/Hotel_-g293890-d310330--Shangri_La_Hotel_Kathmandu-Kathmandu_Kathmandu_Valley_Bagmati_Zone_Central_Region.html,true,false,true,false,Lazimpat,"Lazimpat, Road","Kathmandu 655, ",27.722715,85.3211019
Hotel Woodland Kathmandu, 5884,Expedia,60,4,https://www.tripadvisor.com/Hotel_-g293890-d7102679--Hotel_Woodland_Kathmandu-Kathmandu_Kathmandu_Valley_Bagmati_Zone_Central_Region.html,true,false,true,false,Durbar Marg, ,"Kathmandu 44600, ",27.7064565,85.3164261
Hotel Marshyangdi, 4934,Expedia,254,3.5,https://www.tripadvisor.com/Hotel_-g293890-d310331--Hotel_Marshyangdi-Kathmandu_Kathmandu_Valley_Bagmati_Zone_Central_Region.html,true,false,true,false, ,"Chaksibari Marg, Thamel","Kathmandu 13321, ",27.7151898,85.3103681
OYO 11468 Kathmandu Embassy Hotel, 1712,Booking.com,50,4,https://www.tripadvisor.com/Hotel_-g293890-d8408952--OYO_11468_Kathmandu_Embassy_Hotel-Kathmandu_Kathmandu_Valley_Bagmati_Zone_Central_Regi.html,true,false,true,false,Lazimpat Rd,Surya Mukhi Marga,"Kathmandu 44600, ",27.722621,85.32026
Ammas Home B & B, 3001,Booking.com,128,4.5,https://www.tripadvisor.com/Hotel_-g293890-d2366917--Ammas_Home_B_B-Kathmandu_Kathmandu_Valley_Bagmati_Zone_Central_Region.html,true,false,true,false,Thamel Dhungedhara,behind Amrit Science Campus,"Kathmandu 10969, ",27.717759,85.3128015
Kathmandu Garden Home, 1766,Expedia,43,4.5,https://www.tripadvisor.com/Hotel_-g293890-d11802348--Kathmandu_Garden_Home-Kathmandu_Kathmandu_Valley_Bagmati_Zone_Central_Region.html,true,false,true,false,Paknajol marg, ,"Kathmandu 44600, ",27.7149996,85.3085206
Hotel Pokhara Peace, 1764,Booking.com,79,4,https://www.tripadvisor.com/Hotel_-g293890-d1904888--Hotel_Pokhara_Peace-Kathmandu_Kathmandu_Valley_Bagmati_Zone_Central_Region.html,true,false,true,false,"Chibaha Marga-2, House No:105, Thamel", ,"Kathmandu 44600, ",27.713681,85.3115359
Karma Boutique Hotel, 3363,Booking.com,30,5,https://www.tripadvisor.com/Hotel_-g293890-d12548952--Karma_Boutique_Hotel-Kathmandu_Kathmandu_Valley_Bagmati_Zone_Central_Region.html,true,true,false,false,"Jyatha, Thamel", ,"Kathmandu 44600, ",27.7117549,85.3129755
Holyland Guest House, 786,Expedia,117,4.5,https://www.tripadvisor.com/Hotel_-g293890-d1108970--Holyland_Guest_House-Kathmandu_Kathmandu_Valley_Bagmati_Zone_Central_Region.html,true,false,true,false,Bhagawati Sthan,29-Thamel,"Kathmandu 21851, ",27.71696,85.3116989
Royal Singi Hotel, 6667,Booking.com,241,3.5,https://www.tripadvisor.com/Hotel_-g293890-d338262--Royal_Singi_Hotel-Kathmandu_Kathmandu_Valley_Bagmati_Zone_Central_Region.html,true,false,true,false,"Kathmandu 44600, Nepal","Lal Durbar, Kamaladi","Kathmandu 44600, ",27.7125547,85.3200076
3 Rooms by Pauline, 5996,Expedia,33,5,https://www.tripadvisor.com/Hotel_-g293890-d8541794--3_Rooms_by_Pauline-Kathmandu_Kathmandu_Valley_Bagmati_Zone_Central_Region.html,true,false,true,false,Babar Mahal Revisited,Nearby Annapurna Hospital,"Kathmandu 44600, ",27.694248,85.322652
Hotel Pleasure Home, 2167,Booking.com,127,4,https://www.tripadvisor.com/Hotel_-g293890-d1197559--Hotel_Pleasure_Home-Kathmandu_Kathmandu_Valley_Bagmati_Zone_Central_Region.html,true,true,false,false,"Jyatha Street, Thamel","Amrit Marg 30, Jyatha","Kathmandu 44600, ",27.712425,85.313016
Hotel Potala, 1161,Booking.com,169,4,https://www.tripadvisor.com/Hotel_-g293890-d1400667--Hotel_Potala-Kathmandu_Kathmandu_Valley_Bagmati_Zone_Central_Region.html,true,false,false,true,Thamal,PO Box 26182,"Kathmandu 00977, ",27.7153902,85.3123293
Annapurna Guest House, 1429,TripAdvisor,153,4,https://www.tripadvisor.com/Hotel_-g293890-d631435--Annapurna_Guest_House-Kathmandu_Kathmandu_Valley_Bagmati_Zone_Central_Region.html,true,false,true,false,"Thamel, Gahiti Rd, Near Amrit Marg", ,"Kathmandu 20928, ",27.7142364,85.3124167
Hotel Harmika, 5369,Booking.com,53,4.5,https://www.tripadvisor.com/Hotel_-g293890-d7813530--Hotel_Harmika-Kathmandu_Kathmandu_Valley_Bagmati_Zone_Central_Region.html,true,false,true,false,"Behind Boudha stupa, Boudha lane", ,"Kathmandu 44600, ",27.7241265,85.3597784
Hotel Giramondo, 1884,Booking.com,20,5,https://www.tripadvisor.com/Hotel_-g293890-d12991588--Hotel_Giramondo-Kathmandu_Kathmandu_Valley_Bagmati_Zone_Central_Region.html,true,true,false,false,Buddha Tole Marg, ,"Kathmandu 44600, ",27.7195345,85.3118514
Hotel Vajra, 1978,Expedia,179,4,https://www.tripadvisor.com/Hotel_-g293890-d338256--Hotel_Vajra-Kathmandu_Kathmandu_Valley_Bagmati_Zone_Central_Region.html,true,false,true,false,"Bijeswari, Swayambhu", ,"Kathmandu, ",27.712556,85.3001939
Hotel Excelsior, 2646,Expedia,115,4,https://www.tripadvisor.com/Hotel_-g293890-d338245--Hotel_Excelsior-Kathmandu_Kathmandu_Valley_Bagmati_Zone_Central_Region.html,true,false,false,true,Narsingh Chowk Marg,Narsingh Camp,"Kathmandu 44600, ",27.7137574,85.3111634
Platinum Hotel & Spa, 12070,Expedia,57,4.5,https://www.tripadvisor.com/Hotel_-g293890-d7749057--Platinum_Hotel_Spa-Kathmandu_Kathmandu_Valley_Bagmati_Zone_Central_Region.html,true,false,true,false,Red Cross Marg, ,"Kathmandu 44600, ",27.702476,85.3202699
Classic Nepal Hotel, 1710,Hotels.com,28,4.5,https://www.tripadvisor.com/Hotel_-g293890-d12541486--Classic_Nepal_Hotel-Kathmandu_Kathmandu_Valley_Bagmati_Zone_Central_Region.html,true,false,false,true,Paknajol Marg, ,"Kathmandu 44600, ",27.7149996,85.3085206
Nirvana Garden Hotel, 3302,Booking.com,218,3.5,https://www.tripadvisor.com/Hotel_-g293890-d338259--Nirvana_Garden_Hotel-Kathmandu_Kathmandu_Valley_Bagmati_Zone_Central_Region.html,true,false,true,false,Thamel, ,"Kathmandu 44600, ",27.7153902,85.3123293
Kathmandu Friendly Home, 908,Booking.com,143,4.5,https://www.tripadvisor.com/Hotel_-g293890-d1902627--Kathmandu_Friendly_Home-Kathmandu_Kathmandu_Valley_Bagmati_Zone_Central_Region.html,true,false,true,false,Paknajol Marg,"Kaldhara, Thamel","Kathmandu 44600, ",27.7149996,85.3085206
Kathmandu Cityhill Studio Apartment, 2913,Expedia,32,5,https://www.tripadvisor.com/Hotel_-g293890-d9991640--Kathmandu_Cityhill_Studio_Apartment-Kathmandu_Kathmandu_Valley_Bagmati_Zone_Central_Re.html,true,false,true,false,"Dyabu Marg, Galkopakha, Thamel", ,"Kathmandu 44600, ",27.720859,85.3121211
Acme Guest House, 1244,Expedia,182,4,https://www.tripadvisor.com/Hotel_-g293890-d1196919--Acme_Guest_House-Kathmandu_Kathmandu_Valley_Bagmati_Zone_Central_Region.html,true,false,true,false,Thamel,PO Box 10506,"Kathmandu 10506, ",27.7153902,85.3123293
Hotel Melungtse, 2646,Expedia,68,4.5,https://www.tripadvisor.com/Hotel_-g293890-d1793045--Hotel_Melungtse-Kathmandu_Kathmandu_Valley_Bagmati_Zone_Central_Region.html,true,false,true,false, , ,"Kathmandu, ",27.7353705,85.3437281
Hotel Himalaya Yoga, 1497,Booking.com,90,4.5,https://www.tripadvisor.com/Hotel_-g293890-d3748125--Hotel_Himalaya_Yoga-Kathmandu_Kathmandu_Valley_Bagmati_Zone_Central_Region.html,true,false,true,false,"Chaksibari Marg, Thamel", ,"Kathmandu 44600, ",27.7151898,85.3103681
The Little House in the Ricefields, 2522,Booking.com,34,5,https://www.tripadvisor.com/Hotel_-g293890-d2647652--The_Little_House_in_the_Ricefields-Kathmandu_Kathmandu_Valley_Bagmati_Zone_Central_Reg.html,true,false,true,false,Khokana,Sanokhokana,"Kathmandu 44600, ",27.712425,85.313016
Aster Hotel Nepal, 2184,Booking.com,29,5,https://www.tripadvisor.com/Hotel_-g293890-d10748796--Aster_Hotel_Nepal-Kathmandu_Kathmandu_Valley_Bagmati_Zone_Central_Region.html,true,true,false,false,Chhusya Galli, ,"Kathmandu 44600, ",27.711424,85.3131286
Kantipur Temple House, 6762,Booking.com,889,4.5,https://www.tripadvisor.com/Hotel_-g293890-d338257--Kantipur_Temple_House-Kathmandu_Kathmandu_Valley_Bagmati_Zone_Central_Region.html,true,false,false,true,"Chusyabahal, Jyatha Tol",Thamel,"Kathmandu 44600, ",27.7118151,85.3131469
Green Hotel, 2513,Expedia,44,4.5,https://www.tripadvisor.com/Hotel_-g293890-d3513573--Green_Hotel-Kathmandu_Kathmandu_Valley_Bagmati_Zone_Central_Region.html,true,false,true,false,Boudha, ,"Kathmandu 44600, ",27.720823,85.364904
Hotel Marshyangdi, 4934,Expedia,254,3.5,https://www.tripadvisor.com/Hotel_-g293890-d310331--Hotel_Marshyangdi-Kathmandu_Kathmandu_Valley_Bagmati_Zone_Central_Region.html,true,false,true,false, ,"Chaksibari Marg, Thamel","Kathmandu 13321, ",27.7151898,85.3103681
Kirtipur Hillside Hotel & Resort, 2743,Expedia,27,4.5,https://www.tripadvisor.com/Hotel_-g293890-d2559965--Kirtipur_Hillside_Hotel_Resort-Kathmandu_Kathmandu_Valley_Bagmati_Zone_Central_Region.html,true,false,false,true,Chithu, ,"Kathmandu 44600, ",27.6786419,85.277717
Dipankara Holiday Home, 1654,Booking.com,30,4.5,https://www.tripadvisor.com/Hotel_-g293890-d4242479--Dipankara_Holiday_Home-Kathmandu_Kathmandu_Valley_Bagmati_Zone_Central_Region.html,true,false,true,false,Boudha, ,"Kathmandu 44600, ",27.7213539,85.3692628
Hotel Devachan, 890,Expedia,28,4.5,https://www.tripadvisor.com/Hotel_-g293890-d3320061--Hotel_Devachan-Kathmandu_Kathmandu_Valley_Bagmati_Zone_Central_Region.html,true,false,true,false,202 Phurkesalla Marg,Bhijeshwori,"Kathmandu 44600, ",27.7133332,85.2960528
Hotel Vaishali, 6075,Expedia,379,3.5,https://www.tripadvisor.com/Hotel_-g293890-d305976--Hotel_Vaishali-Kathmandu_Kathmandu_Valley_Bagmati_Zone_Central_Region.html,true,false,true,false, , ,"Kathmandu, ",27.7172453,85.3239605
Hotel Hana, 1270,Booking.com,35,4.5,https://www.tripadvisor.com/Hotel_-g293890-d3208571--Hotel_Hana-Kathmandu_Kathmandu_Valley_Bagmati_Zone_Central_Region.html,true,false,true,false,"Bhagawan Bahal, Thamel", ,"Kathmandu 44600, ",27.71664,85.312721
Family Peace House, 621,Booking.com,95,4,https://www.tripadvisor.com/Hotel_-g293890-d1627552--Family_Peace_House-Kathmandu_Kathmandu_Valley_Bagmati_Zone_Central_Region.html,true,false,false,true,Paknajol,Thamel,"Kathmandu 977, ",27.717257,85.310168
Hotel Backpackers INN, 1524,Booking.com,53,4,https://www.tripadvisor.com/Hotel_-g293890-d3212872--Hotel_Backpackers_INN-Kathmandu_Kathmandu_Valley_Bagmati_Zone_Central_Region.html,true,true,false,false,Jyatha,Thamel,"Kathmandu 977, ",27.717257,85.310168
Hotel Dhargye Khangsar, 3787,Expedia,25,5,https://www.tripadvisor.com/Hotel_-g293890-d7705826--Hotel_Dhargye_Khangsar-Kathmandu_Kathmandu_Valley_Bagmati_Zone_Central_Region.html,true,false,true,false,Boudha Pulbari,Near White Monastery,"Kathmandu 09771, ",27.7237732,85.3696978
Eco Homestay, 3812,Booking.com,21,5,https://www.tripadvisor.com/Hotel_-g293890-d4724425--Eco_Homestay-Kathmandu_Kathmandu_Valley_Bagmati_Zone_Central_Region.html,true,false,true,false,"Banasthali, Balaju", ,"Kathmandu 44600, ",27.7212949,85.2922919
Hotel Kaze Darbar, 5927,Expedia,50,4.5,https://www.tripadvisor.com/Hotel_-g293890-d5075613--Hotel_Kaze_Darbar-Kathmandu_Kathmandu_Valley_Bagmati_Zone_Central_Region.html,true,false,true,false,Kamalpokhari-1, ,"Kathmandu 4529, ",27.7111714,85.3255595
Simrika Homes, 946,Expedia,30,4.5,https://www.tripadvisor.com/Hotel_-g293890-d8846595--Simrika_Homes-Kathmandu_Kathmandu_Valley_Bagmati_Zone_Central_Region.html,true,false,true,false,Lekhanath Marg, ,"Kathmandu 44600, ",27.717085,85.3137833
Hotel Manaslu, 7784,Expedia,283,3.5,https://www.tripadvisor.com/Hotel_-g293890-d338248--Hotel_Manaslu-Kathmandu_Kathmandu_Valley_Bagmati_Zone_Central_Region.html,true,false,true,false,230 Hotel Marg,Lazimpat,"Kathmandu 44600, ",27.720005,85.320884
Kathmandu View Hotel, 2910,Booking.com,23,4.5,https://www.tripadvisor.com/Hotel_-g293890-d3922845--Kathmandu_View_Hotel-Kathmandu_Kathmandu_Valley_Bagmati_Zone_Central_Region.html,true,false,false,true,"Thamel, Kaldhara",Post Office Box 10338,"Kathmandu 44600, ",27.716298,85.3061782
Maya Guest House, 2231,Booking.com,28,4.5,https://www.tripadvisor.com/Hotel_-g293890-d1224402--Maya_Guest_House-Kathmandu_Kathmandu_Valley_Bagmati_Zone_Central_Region.html,true,true,false,false,Boudha,Bagmati,"Kathmandu 44600, ",27.7219003,85.3732524
Hotel Impala Garden, 1381,Expedia,44,4.5,https://www.tripadvisor.com/Hotel_-g293890-d642294--Hotel_Impala_Garden-Kathmandu_Kathmandu_Valley_Bagmati_Zone_Central_Region.html,true,false,true,false,619 Chaksibari Marg,"Thamel, Pakanajole","Kathmandu 44600, ",27.7177006,85.3101486
Platinum Hotel & Spa, 12070,Expedia,57,4.5,https://www.tripadvisor.com/Hotel_-g293890-d7749057--Platinum_Hotel_Spa-Kathmandu_Kathmandu_Valley_Bagmati_Zone_Central_Region.html,true,false,true,false,Red Cross Marg, ,"Kathmandu 44600, ",27.702476,85.3202699
Solid Rock Lodge & Restaurant, 2910,Agoda.com,20,4.5,https://www.tripadvisor.com/Hotel_-g293890-d12220594--Solid_Rock_Lodge_Restaurant-Kathmandu_Kathmandu_Valley_Bagmati_Zone_Central_Region.html,true,false,true,false,7 Dakshinkali,"Dollu, Pharping","Kathmandu 44600, ",27.605107,85.2634699
Hotel Discovery Inn, 1372,Expedia,207,4.5,https://www.tripadvisor.com/Hotel_-g293890-d2330555--Hotel_Discovery_Inn-Kathmandu_Kathmandu_Valley_Bagmati_Zone_Central_Region.html,true,false,true,false,Thamel,"Chibhal , Kathmandu","Kathmandu 44600, ",27.7137993,85.3117964
Anita's Home Stay, 1667,Booking.com,43,5,https://www.tripadvisor.com/Hotel_-g293890-d8764117--Anita_s_Home_Stay-Kathmandu_Kathmandu_Valley_Bagmati_Zone_Central_Region.html,true,false,true,false,16 Mehpi, ,"Kathmandu 44600, ",27.7172453,85.3239605
Raniban Homestay, 3395,Booking.com,23,5,https://www.tripadvisor.com/Hotel_-g293890-d8522505--Raniban_Homestay-Kathmandu_Kathmandu_Valley_Bagmati_Zone_Central_Region.html,true,true,false,false,Ring Road,"Vanasthali, Kharibot, Nagar Vikas Raniban","Kathmandu 44600, ",27.7290351,85.2927795
Hotel Namtso, 1850,Booking.com,20,4.5,https://www.tripadvisor.com/Hotel_-g293890-d7622991--Hotel_Namtso-Kathmandu_Kathmandu_Valley_Bagmati_Zone_Central_Region.html,true,true,false,false,Amrit Marg,Jyatha,"Kathmandu 44600, ",27.712585,85.312096
Hotel Thamel Park, 1961,Booking.com,18,5,https://www.tripadvisor.com/Hotel_-g293890-d12674084--Hotel_Thamel_Park-Kathmandu_Kathmandu_Valley_Bagmati_Zone_Central_Region.html,true,false,true,false,Chaksibari Marg,Thamel,"Kathmandu 44600, ",27.7151898,85.3103681
The Choice Hotel, 1854,Expedia,48,4.5,https://www.tripadvisor.com/Hotel_-g293890-d3228907--The_Choice_Hotel-Kathmandu_Kathmandu_Valley_Bagmati_Zone_Central_Region.html,true,false,true,false,Manjushree Bazar Marg,Swayambhu,"Kathmandu 10263, ",27.7149298,85.2844626
Kathmandu Garden Home, 1766,Expedia,43,4.5,https://www.tripadvisor.com/Hotel_-g293890-d11802348--Kathmandu_Garden_Home-Kathmandu_Kathmandu_Valley_Bagmati_Zone_Central_Region.html,true,false,true,false,Paknajol marg, ,"Kathmandu 44600, ",27.7149996,85.3085206
Un Dia Blanco Eco Inn, 1495,TripAdvisor,25,4.5,https://www.tripadvisor.com/Hotel_-g293890-d7916720--Un_Dia_Blanco_Eco_Inn-Kathmandu_Kathmandu_Valley_Bagmati_Zone_Central_Region.html,true,false,false,false,6 Boudhanath, ,"Kathmandu 44600, ",27.7247716,85.3640746
Hotel Siddhi Manakamana, 4374,Booking.com,27,4.5,https://www.tripadvisor.com/Hotel_-g293890-d4876891--Hotel_Siddhi_Manakamana-Kathmandu_Kathmandu_Valley_Bagmati_Zone_Central_Region.html,true,false,true,false,"108 Uddan Marg, Phulabari Chowk",Boudha,"Kathmandu 00977, ",27.7218876,85.3641213
Hotel Premium, 1198,Booking.com,35,4,https://www.tripadvisor.com/Hotel_-g293890-d2050134--Hotel_Premium-Kathmandu_Kathmandu_Valley_Bagmati_Zone_Central_Region.html,true,false,true,false,Paknajol Chowk,Thamel,"Kathmandu 4246, ",27.7155525,85.308677
The Museum, 4407,Booking.com,10,5,https://www.tripadvisor.com/Hotel_-g293890-d12851666--The_Museum-Kathmandu_Kathmandu_Valley_Bagmati_Zone_Central_Region.html,true,true,false,false,"Panipokhari, Le Sherpa Farmers Market", ,"Kathmandu 44600, ",27.7314743,85.327674
OYO 11457 Kathmandu Resort Hotel, 1520,Booking.com,136,3.5,https://www.tripadvisor.com/Hotel_-g293890-d1581788--OYO_11457_Kathmandu_Resort_Hotel-Kathmandu_Kathmandu_Valley_Bagmati_Zone_Central_Regio.html,true,false,true,false,Sagarmatha Bazar,Mandala Street,"Kathmandu 44600, ",27.7150664,85.3108985
Thamel Apartments/Hotel, 3079,Booking.com,17,4.5,https://www.tripadvisor.com/Hotel_-g293890-d3387144--Thamel_Apartments_Hotel-Kathmandu_Kathmandu_Valley_Bagmati_Zone_Central_Region.html,true,false,true,false,Thamel marg - 29, ,"Kathmandu 00977, ",27.7140056,85.3112733
Hotel Cascade Pvt. Ltd., 4414,Booking.com,36,4,https://www.tripadvisor.com/Hotel_-g293890-d2097839--Hotel_Cascade_Pvt_Ltd-Kathmandu_Kathmandu_Valley_Bagmati_Zone_Central_Region.html,true,false,true,false,Lazimpat, ,"Kathmandu GPO 11450, ",27.7215031,85.3200837
OYO 120 Hotel Tayoma, 1944,Booking.com,62,4,https://www.tripadvisor.com/Hotel_-g293890-d2695250--OYO_120_Hotel_Tayoma-Kathmandu_Kathmandu_Valley_Bagmati_Zone_Central_Region.html,true,true,false,false,"JP Road, Thamel", ,"Kathmandu 44600, ",27.7119715,85.3097835
Magic Nepal Home Stay, 2741,Expedia,13,5,https://www.tripadvisor.com/Hotel_-g293890-d6990408--Magic_Nepal_Home_Stay-Kathmandu_Kathmandu_Valley_Bagmati_Zone_Central_Region.html,true,false,false,false,"22 Patan Dhoka, Ashok Hall. Nyadhal", ,"Kathmandu 44600, ",27.6778476,85.3226788
King's Land Hotel, 611,Expedia,36,4.5,https://www.tripadvisor.com/Hotel_-g293890-d3639399--King_s_Land_Hotel-Kathmandu_Kathmandu_Valley_Bagmati_Zone_Central_Region.html,true,false,false,false,29 Bhagawatisthan Thamel, ,"Kathmandu 44600, ",27.7154706,85.3115053
Amar Hotel, 2743,Expedia,19,4.5,https://www.tripadvisor.com/Hotel_-g293890-d2626742--Amar_Hotel-Kathmandu_Kathmandu_Valley_Bagmati_Zone_Central_Region.html,true,false,true,false,Kalimati, ,"Kathmandu 44600, ",27.6999738,85.2890594
Regal Airport Hotel, 3087,Expedia,61,4,https://www.tripadvisor.com/Hotel_-g293890-d7182950--Regal_Airport_Hotel-Kathmandu_Kathmandu_Valley_Bagmati_Zone_Central_Region.html,true,false,true,false,Airport Sinamangal, ,"Kathmandu 44600, ",27.6980899,85.3592231
Shangrila Lodge, 536,Booking.com,28,4.5,https://www.tripadvisor.com/Hotel_-g293890-d7119472--Shangrila_Lodge-Kathmandu_Kathmandu_Valley_Bagmati_Zone_Central_Region.html,true,false,false,true,Samjhana Street Thamel, ,"Kathmandu 44600, ",27.7157357,85.3110032
Yellow Pagoda Hotel, 6548,Expedia,73,3.5,https://www.tripadvisor.com/Hotel_-g293890-d1224401--Yellow_Pagoda_Hotel-Kathmandu_Kathmandu_Valley_Bagmati_Zone_Central_Region.html,true,false,true,false,Kantipath, ,"Kathmandu 44600, ",27.7053962,85.3140824
Hotel Metropolitan Kantipur, 1874,Booking.com,29,4,https://www.tripadvisor.com/Hotel_-g293890-d2699203--Hotel_Metropolitan_Kantipur-Kathmandu_Kathmandu_Valley_Bagmati_Zone_Central_Region.html,true,false,false,true,Paknajol, ,"Kathmandu 44600, ",27.715099,85.307889
Hotel Sunset View, 5292,Booking.com,29,4,https://www.tripadvisor.com/Hotel_-g293890-d316822--Hotel_Sunset_View-Kathmandu_Kathmandu_Valley_Bagmati_Zone_Central_Region.html,true,false,false,true, ,New Baneswor,"Kathmandu 44600, ",27.6915196,85.3420486
Be Here Now, 4282,Booking.com,9,5,https://www.tripadvisor.com/Hotel_-g293890-d13473977--Be_Here_Now-Kathmandu_Kathmandu_Valley_Bagmati_Zone_Central_Region.html,true,false,true,false,Ropeway Sadak, ,"Kathmandu 44600, ",27.7197377,85.300116
Hotel Visit Nepal, 1005,Expedia,67,3.5,https://www.tripadvisor.com/Hotel_-g293890-d1402774--Hotel_Visit_Nepal-Kathmandu_Kathmandu_Valley_Bagmati_Zone_Central_Region.html,true,false,false,false,"Z Street, Thamel", ,"Kathmandu 13570, ",27.7167975,85.3095476
Hotel Royal Suite, 3115,Booking.com,12,5,https://www.tripadvisor.com/Hotel_-g293890-d13224138--Hotel_Royal_Suite-Kathmandu_Kathmandu_Valley_Bagmati_Zone_Central_Region.html,true,false,false,false,Z Street, ,"Kathmandu 44600, ",27.7167975,85.3095476
Hotel Holy Temple Tree, 1765,Expedia,46,4.5,https://www.tripadvisor.com/Hotel_-g293890-d2360935--Hotel_Holy_Temple_Tree-Kathmandu_Kathmandu_Valley_Bagmati_Zone_Central_Region.html,true,false,true,false,Lainchour Road,Thamel,"Kathmandu 44600, ",27.7177979,85.3141969
Palagya Hotel, 2727,Expedia,66,4.5,https://www.tripadvisor.com/Hotel_-g293890-d3314300--Palagya_Hotel-Kathmandu_Kathmandu_Valley_Bagmati_Zone_Central_Region.html,true,false,true,false,"Tilganga Road, Gaushala",Near Kathmandu Airport & Pasupatinath Temple,"Kathmandu 10840, ",27.71062,85.3485809
Hostel Travellers Hub, 136,Booking.com,13,5,https://www.tripadvisor.com/Hotel_-g293890-d12391069--Hostel_Travellers_Hub-Kathmandu_Kathmandu_Valley_Bagmati_Zone_Central_Region.html,true,false,true,false,Paknajol Chowk, ,"Kathmandu 44600, ",27.7155026,85.3086747
Adventure Home, 1019,Agoda.com,39,4,https://www.tripadvisor.com/Hotel_-g293890-d10822715--Adventure_Home-Kathmandu_Kathmandu_Valley_Bagmati_Zone_Central_Region.html,true,false,true,false,29 Amrit Marg Thamel, ,"Kathmandu 44600, ",27.7142364,85.3124167
Sakura Boutique Hotel, 2716,Booking.com,12,5,https://www.tripadvisor.com/Hotel_-g293890-d13984701--Sakura_Boutique_Hotel-Kathmandu_Kathmandu_Valley_Bagmati_Zone_Central_Region.html,false,false,false,false,"Bhagawati Bahal, Thamel", ,"Kathmandu 44600, ",27.7155261,85.3113159
Kathmandu Mantra Home, 1234,Booking.com,96,4.5,https://www.tripadvisor.com/Hotel_-g293890-d10587935--Kathmandu_Mantra_Home-Kathmandu_Kathmandu_Valley_Bagmati_Zone_Central_Region.html,true,false,true,false,"Z Street, Thamel", ,"Kathmandu 44600, ",27.7167975,85.3095476
Kathmandu Peace Home, 1164,Booking.com,21,5,https://www.tripadvisor.com/Hotel_-g293890-d13814654--Kathmandu_Peace_Home-Kathmandu_Kathmandu_Valley_Bagmati_Zone_Central_Region.html,false,false,false,false,Mhepi Marg Maipi Chowk, ,"Kathmandu 44600, ",27.7172453,85.3239605
Hotel Rising Home, 1044,Booking.com,12,5,https://www.tripadvisor.com/Hotel_-g293890-d13320797--Hotel_Rising_Home-Kathmandu_Kathmandu_Valley_Bagmati_Zone_Central_Region.html,true,false,false,false,Rayamajhi Marga Nayabazar, ,"Kathmandu 44600, ",27.7227767,85.3103133
Dahachok Homestay, 1397,Expedia,12,5,https://www.tripadvisor.com/Hotel_-g293890-d12283384--Dahachok_Homestay-Kathmandu_Kathmandu_Valley_Bagmati_Zone_Central_Region.html,true,false,true,false,Chandragiri,"Chandragiri-01, Khahare, Dahachok","Kathmandu 11569, ",27.7110635,85.2282525
Hostel Himalaya, 970,Booking.com,23,4.5,https://www.tripadvisor.com/Hotel_-g293890-d11958947--Hostel_Himalaya-Kathmandu_Kathmandu_Valley_Bagmati_Zone_Central_Region.html,true,false,true,false, ,"Sorakhutte, Bahati Pokhari, Naya Bazaar","Kathmandu 44600, ",27.7189498,85.3094675
Kantipur Temple House, 6762,Booking.com,889,4.5,https://www.tripadvisor.com/Hotel_-g293890-d338257--Kantipur_Temple_House-Kathmandu_Kathmandu_Valley_Bagmati_Zone_Central_Region.html,true,false,false,true,"Chusyabahal, Jyatha Tol",Thamel,"Kathmandu 44600, ",27.711352,85.313079
Hotel Nandini, 2123,Booking.com,11,4.5,https://www.tripadvisor.com/Hotel_-g293890-d3513563--Hotel_Nandini-Kathmandu_Kathmandu_Valley_Bagmati_Zone_Central_Region.html,true,false,true,false,"Near Airport Ring Road, Sinamangal", ,"Kathmandu 44600, ",27.6980899,85.3592231
Hotel Meridian Suite, 3204,Booking.com,46,4,https://www.tripadvisor.com/Hotel_-g293890-d7591888--Hotel_Meridian_Suite-Kathmandu_Kathmandu_Valley_Bagmati_Zone_Central_Region.html,true,false,true,false, ,Near Tribhuvan International Airport,"Kathmandu 44600, ",27.6980899,85.3592231
Hotel Yukhang, 6215,Expedia,33,4,https://www.tripadvisor.com/Hotel_-g293890-d5075576--Hotel_Yukhang-Kathmandu_Kathmandu_Valley_Bagmati_Zone_Central_Region.html,true,false,true,false,Alley off of JP Marga, ,"Kathmandu 44600, ",27.7119715,85.3097835
Dreamland Eco Hostel, 970,Booking.com,10,5,https://www.tripadvisor.com/Hotel_-g293890-d10319325--Dreamland_Eco_Hostel-Kathmandu_Kathmandu_Valley_Bagmati_Zone_Central_Region.html,true,true,false,false,Ramkot,7km away from Thamel and 3km from the Monkey Temple,"Kathmandu 44600, ",27.713795,85.308187
Hotel Pashupati Darshan, 1843,Expedia,10,5,https://www.tripadvisor.com/Hotel_-g293890-d6929694--Hotel_Pashupati_Darshan-Kathmandu_Kathmandu_Valley_Bagmati_Zone_Central_Region.html,false,false,false,false,"Ratopul, Gaushala", ,"Kathmandu, ",27.71062,85.3485809
Hotel Tashi Dhele, 354,Expedia,28,4,https://www.tripadvisor.com/Hotel_-g293890-d338254--Hotel_Tashi_Dhele-Kathmandu_Kathmandu_Valley_Bagmati_Zone_Central_Region.html,true,false,false,true, ,Thamel,"Kathmandu 44600, ",27.7153902,85.3123293
Hotel Serenity, 4005,Booking.com,49,4.5,https://www.tripadvisor.com/Hotel_-g293890-d9853338--Hotel_Serenity-Kathmandu_Kathmandu_Valley_Bagmati_Zone_Central_Region.html,true,true,false,false,Bhagwati Marg,Thamel,"Kathmandu 44600, ",27.6919405,85.2945882
Traveler's Holiday Inn Pvt. Ltd, 2134,Booking.com,10,4.5,https://www.tripadvisor.com/Hotel_-g293890-d7240295--Traveler_s_Holiday_Inn_Pvt_Ltd-Kathmandu_Kathmandu_Valley_Bagmati_Zone_Central_Region.html,true,true,false,false,"Amrit Marg, Jyatha",Thamel,"Kathmandu 44600, ",27.7125209,85.312175
City Hotel and Suites, 4316,Booking.com,14,4.5,https://www.tripadvisor.com/Hotel_-g293890-d7804045--City_Hotel_and_Suites-Kathmandu_Kathmandu_Valley_Bagmati_Zone_Central_Region.html,true,false,true,false,Lazimpat, ,"Kathmandu 44600, ",27.7215031,85.3200837
Hotel Api, 1331,Expedia,21,4.5,https://www.tripadvisor.com/Hotel_-g293890-d7133167--Hotel_Api-Kathmandu_Kathmandu_Valley_Bagmati_Zone_Central_Region.html,true,false,false,true,Narsingh Chowk Marg,Thamel,"Kathmandu 44600, ",27.7146412,85.3106022
Papaya Hotel Apartment, 3884,Booking.com,12,4.5,https://www.tripadvisor.com/Hotel_-g293890-d8539696--Papaya_Hotel_Apartment-Kathmandu_Kathmandu_Valley_Bagmati_Zone_Central_Region.html,true,false,true,false,Near Panchakanya Police Station,"Chundevi, Baluwatar","Kathmandu 44600, ",27.703359,85.332371
Hostel ONE96, 97,Booking.com,32,5,https://www.tripadvisor.com/Hotel_-g293890-d10819587--Hostel_ONE96-Kathmandu_Kathmandu_Valley_Bagmati_Zone_Central_Region.html,true,false,false,true,Paknajol Marg 43/33,Thamel,"Kathmandu 44600, ",27.7117391,85.3083511
Hotel Himalayan Oasis, 2843,Booking.com,31,4.5,https://www.tripadvisor.com/Hotel_-g293890-d12342032--Hotel_Himalayan_Oasis-Kathmandu_Kathmandu_Valley_Bagmati_Zone_Central_Region.html,true,true,false,false,Saat Ghumti Marg, ,"Kathmandu 44600, ",27.7156642,85.3092648
Hotel Maharaja Palace, 2911,Expedia,17,4,https://www.tripadvisor.com/Hotel_-g293890-d6631354--Hotel_Maharaja_Palace-Kathmandu_Kathmandu_Valley_Bagmati_Zone_Central_Region.html,true,false,false,true,"Gaushala Tilganga, Kathmandu", ,"Kathmandu 44600, ",27.7077779,85.3434272
Newa Home, 1434,Booking.com,17,5,https://www.tripadvisor.com/Hotel_-g293890-d13217216--Newa_Home-Kathmandu_Kathmandu_Valley_Bagmati_Zone_Central_Region.html,false,false,false,false,Kaldhara Marg, ,"Kathmandu 44600, ",27.7163683,85.3068518
Hotel Sweet Town, 1884,Booking.com,7,5,https://www.tripadvisor.com/Hotel_-g293890-d12378426--Hotel_Sweet_Town-Kathmandu_Kathmandu_Valley_Bagmati_Zone_Central_Region.html,true,false,false,false,Thamel Bhagawati Marg, ,"Kathmandu 97701, ",27.7163776,85.3108072
The Doors Hotel Restro & Bar, 1766,Booking.com,13,5,https://www.tripadvisor.com/Hotel_-g293890-d13330118--The_Doors_Hotel_Restro_Bar-Kathmandu_Kathmandu_Valley_Bagmati_Zone_Central_Region.html,true,true,false,false,Paknajol Marg, ,"Kathmandu 44600, ",27.7149996,85.3085206
Hotel Marinha Pvt. Ltd., 4832,Booking.com,6,5,https://www.tripadvisor.com/Hotel_-g293890-d13982480--Hotel_Marinha_Pvt_Ltd-Kathmandu_Kathmandu_Valley_Bagmati_Zone_Central_Region.html,true,false,true,false,Sinamangal, ,"Kathmandu 44600, ",27.6991378,85.3510904
Earthkind Cottages, 2992,Booking.com,8,5,https://www.tripadvisor.com/Hotel_-g293890-d13140204--Earthkind_Cottages-Kathmandu_Kathmandu_Valley_Bagmati_Zone_Central_Region.html,true,false,true,false,Eureka Road,"Nepaltar, Manmaiju","Kathmandu 44600, ",27.744346,85.3033869
Thamel Villa, 6706,Booking.com,7,5,https://www.tripadvisor.com/Hotel_-g293890-d13860042--Thamel_Villa-Kathmandu_Kathmandu_Valley_Bagmati_Zone_Central_Region.html,true,false,true,false,Chaksibari Marg Thamel, ,"Kathmandu 44600, ",27.7151898,85.3103681
Hotel Nepal Tara, 2273,Booking.com,39,4.5,https://www.tripadvisor.com/Hotel_-g293890-d10140085--Hotel_Nepal_Tara-Kathmandu_Kathmandu_Valley_Bagmati_Zone_Central_Region.html,true,false,true,false,Narsingh Chowk,Thamel,"Kathmandu 44600, ",27.7140019,85.311224
The Glasshouse Hotel, 2207,Booking.com,9,5,https://www.tripadvisor.com/Hotel_-g293890-d12978257--The_Glasshouse_Hotel-Kathmandu_Kathmandu_Valley_Bagmati_Zone_Central_Region.html,true,true,false,false,"Chhetrapati Chowk, 151 Swachapu Marga", ,"Kathmandu 44600, ",27.7108718,85.3090448
Metro Inn, 2649,Booking.com,8,4.5,https://www.tripadvisor.com/Hotel_-g293890-d13310811--Metro_Inn-Kathmandu_Kathmandu_Valley_Bagmati_Zone_Central_Region.html,true,false,false,false,Amrit Marg Thamel, ,"Kathmandu 44600, ",27.7142364,85.3124167
Nepal Cottage Resort Pvt. Ltd., 3933,Booking.com,18,5,https://www.tripadvisor.com/Hotel_-g293890-d13219214--Nepal_Cottage_Resort_Pvt_Ltd-Kathmandu_Kathmandu_Valley_Bagmati_Zone_Central_Region.html,true,false,true,false,Paknajol Marg,Thamel,"Kathmandu 44600, ",27.7149996,85.3085206
Bnb Royal Tourist House, 932,Booking.com,7,5,https://www.tripadvisor.com/Hotel_-g293890-d14030917--Bnb_Royal_Tourist_House-Kathmandu_Kathmandu_Valley_Bagmati_Zone_Central_Region.html,true,true,false,false,Swayambhu Marg,"Thamel - Paknajol, Phulbari Galli 172","Kathmandu 44600, ",27.7121268,85.3112171
Amore Guesthouse Kathmandu, 3387,Expedia,10,5,https://www.tripadvisor.com/Hotel_-g293890-d11885132--Amore_Guesthouse_Kathmandu-Kathmandu_Kathmandu_Valley_Bagmati_Zone_Central_Region.html,true,true,false,false,Arun Thapa Chowk,Jhamsikhel Sanepa,"Kathmandu 44600, ",27.6808129,85.310304
Good Vibe Homestay, 1317,Expedia,14,4.5,https://www.tripadvisor.com/Hotel_-g293890-d10306037--Good_Vibe_Homestay-Kathmandu_Kathmandu_Valley_Bagmati_Zone_Central_Region.html,true,false,true,false,5 Manamaiju, ,"Kathmandu 44600, ",27.7489891,85.3110368
Traditional Comfort, 10407,Expedia,162,5,https://www.tripadvisor.com/Hotel_-g293890-d10591832--Traditional_Comfort-Kathmandu_Kathmandu_Valley_Bagmati_Zone_Central_Region.html,true,true,false,false,Kamalpokhari, ,"Kathmandu 44600, ",27.7111714,85.3255595
Lavee Residence, 6791,Expedia,4,5,https://www.tripadvisor.com/Hotel_-g293890-d12443527--Lavee_Residence-Kathmandu_Kathmandu_Valley_Bagmati_Zone_Central_Region.html,true,false,true,false,Phulbari,"Ramhiti, Boudha","Kathmandu 44600, ",27.7247716,85.3640746
Pataleban Vineyard Resort, 5821,Expedia,37,3.5,https://www.tripadvisor.com/Hotel_-g293890-d2399060--Pataleban_Vineyard_Resort-Kathmandu_Kathmandu_Valley_Bagmati_Zone_Central_Region.html,true,false,true,false,"Chisapani - 2, Baad Bhanjyang",Baad Bhanjyang,"Kathmandu 44600, ",27.7126655,85.2057564
Marcopolo Business Hotel, 5733,Expedia,16,4,https://www.tripadvisor.com/Hotel_-g293890-d609097--Marcopolo_Business_Hotel-Kathmandu_Kathmandu_Valley_Bagmati_Zone_Central_Region.html,true,false,true,false,Kamal Pokhari, ,"Kathmandu 44600, ",27.7110759,85.3243996
Kalsee Eco lodge, 11641,Expedia,5,5,https://www.tripadvisor.com/Hotel_-g293890-d12281180--Kalsee_Eco_lodge-Kathmandu_Kathmandu_Valley_Bagmati_Zone_Central_Region.html,true,true,false,false,House No 65/15 Thamel Dabali Marg,Lumle,"Kathmandu 44600, ",27.715002,85.311966
Nepali Ghar Hotel, 6145,Expedia,6,5,https://www.tripadvisor.com/Hotel_-g293890-d13796783--Nepali_Ghar_Hotel-Kathmandu_Kathmandu_Valley_Bagmati_Zone_Central_Region.html,false,false,false,false, ,Thamel,"Kathmandu 44600, ",27.7153902,85.3123293
Hotel Butsugen, 4855,Booking.com,14,5,https://www.tripadvisor.com/Hotel_-g293890-d12800730--Hotel_Butsugen-Kathmandu_Kathmandu_Valley_Bagmati_Zone_Central_Region.html,true,false,true,false,Tushal-Mahankal Rd, ,"Kathmandu 44600, ",27.7222019,85.3582944
Royal Empire Boutique Hotel, 6180,Expedia,11,4.5,https://www.tripadvisor.com/Hotel_-g293890-d12883259--Royal_Empire_Boutique_Hotel-Kathmandu_Kathmandu_Valley_Bagmati_Zone_Central_Region.html,true,false,true,false,Subarna Shamsher Marg, ,"Kathmandu 44600, ",27.7198148,85.3283451
Hotel Mudita, 5978,Hotels.com,5,5,https://www.tripadvisor.com/Hotel_-g293890-d12825125--Hotel_Mudita-Kathmandu_Kathmandu_Valley_Bagmati_Zone_Central_Region.html,true,false,true,false,Siddhartha Marg, ,"Kathmandu 44600, ",27.699826,85.3296688
Nirvana Home, 3837,Expedia,14,5,https://www.tripadvisor.com/Hotel_-g293890-d6537717--Nirvana_Home-Kathmandu_Kathmandu_Valley_Bagmati_Zone_Central_Region.html,true,false,true,false,Maharajgunj,"Godavari Galli, Salla Ghari, Ward no. 3","Kathmandu 24900, ",27.7364789,85.3304212
Summit Residency, 5297,Expedia,104,3.5,https://www.tripadvisor.com/Hotel_-g293890-d2165245--Summit_Residency-Kathmandu_Kathmandu_Valley_Bagmati_Zone_Central_Region.html,true,false,true,false,"Opposite Airport Golden Gate, Sinamangal", ,"Kathmandu 44600, ",27.700311,85.353369
Boudha Stupa View Guest House, 4147,Expedia,23,3.5,https://www.tripadvisor.com/Hotel_-g293890-d7653750--Boudha_Stupa_View_Guest_House-Kathmandu_Kathmandu_Valley_Bagmati_Zone_Central_Region.html,true,true,false,false,Boudha Circle,Boudha Stupa,"Kathmandu 44600, ",27.722031,85.362325
Nepal Yoga Home, 5225,Booking.com,4,5,https://www.tripadvisor.com/Hotel_-g293890-d8834976--Nepal_Yoga_Home-Kathmandu_Kathmandu_Valley_Bagmati_Zone_Central_Region.html,false,false,false,false,"Bypass, Goldhunga", ,"Kathmandu 44600, ",27.7489566,85.2887162
Mahadev Hotel, 3881,Booking.com,12,4,https://www.tripadvisor.com/Hotel_-g293890-d3799753--Mahadev_Hotel-Kathmandu_Kathmandu_Valley_Bagmati_Zone_Central_Region.html,true,false,true,false,"Gaurighat, Pashupati Chettra",opposite of Gunjeshwori Temple,"Kathmandu 00977, ",27.7133478,85.3494759
Allied Hotel, 2317,Expedia,7,4.5,https://www.tripadvisor.com/Hotel_-g293890-d8705063--Allied_Hotel-Kathmandu_Kathmandu_Valley_Bagmati_Zone_Central_Region.html,true,false,true,false,29 Mitranagar,New Buspark,"Kathmandu 44600, ",27.7330552,85.3098984
Kubeyra Mahal Hotel, 2910,Expedia,9,4,https://www.tripadvisor.com/Hotel_-g293890-d6580201--Kubeyra_Mahal_Hotel-Kathmandu_Kathmandu_Valley_Bagmati_Zone_Central_Region.html,true,false,true,false,Thamel, ,"Kathmandu 44600, ",27.7153902,85.3123293
Friendship Home Stay, 2425,Booking.com,28,5,https://www.tripadvisor.com/Hotel_-g293890-d6418180--Friendship_Home_Stay-Kathmandu_Kathmandu_Valley_Bagmati_Zone_Central_Region.html,true,false,true,false,Kapan-1, ,"Kathmandu 00977, ",27.740884,85.3420775
Kathmandu Homestay, 2161,Booking.com,24,5,https://www.tripadvisor.com/Hotel_-g293890-d4373505--Kathmandu_Homestay-Kathmandu_Kathmandu_Valley_Bagmati_Zone_Central_Region.html,true,false,true,false,Echangunarayan-9,"Radha Krishna Temple, Manakamana Marg","Kathmandu 9572, ",27.7187536,85.3102678
Hotel Hema, 3512,Booking.com,10,4.5,https://www.tripadvisor.com/Hotel_-g293890-d12297368--Hotel_Hema-Kathmandu_Kathmandu_Valley_Bagmati_Zone_Central_Region.html,true,false,true,false,"Kalimatidol, Airport Gate","Kedarnath Bhawan,airport Gate","Kathmandu 44600, ",30.7346267,79.0668943
OYO 123 Hotel Prince Plaza, 1649,Booking.com,21,4,https://www.tripadvisor.com/Hotel_-g293890-d8858911--OYO_123_Hotel_Prince_Plaza-Kathmandu_Kathmandu_Valley_Bagmati_Zone_Central_Region.html,true,false,true,false,Sano Gaucharan, ,"Kathmandu 465000, ",27.711209,85.3336819
Kathmandu Garden Home, 1764,Booking.com,4,5,https://www.tripadvisor.com/Hotel_-g293890-d11863034--Kathmandu_Garden_Home-Kathmandu_Kathmandu_Valley_Bagmati_Zone_Central_Region.html,false,false,false,false,"Paknajol Marg, Thamel",Shree Ratna Marg,"Kathmandu 44601, ",27.71735,85.3094639
Pema guest house, 1196,Booking.com,4,5,https://www.tripadvisor.com/Hotel_-g293890-d12922138--Pema_guest_house-Kathmandu_Kathmandu_Valley_Bagmati_Zone_Central_Region.html,false,false,false,false,No 210 Boudha Phoolbari Marg. House, ,"Kathmandu 44600, ",27.7213539,85.3692628
Hotel Wanderlust, 194,Booking.com,15,4.5,https://www.tripadvisor.com/Hotel_-g293890-d10064733--Hotel_Wanderlust-Kathmandu_Kathmandu_Valley_Bagmati_Zone_Central_Region.html,true,false,false,true,Freak Street,Jhochhen,"Kathmandu 44600, ",27.7035085,85.3067756
Hotel Northfield, 2164,Booking.com,50,3.5,https://www.tripadvisor.com/Hotel_-g293890-d1897716--Hotel_Northfield-Kathmandu_Kathmandu_Valley_Bagmati_Zone_Central_Region.html,true,false,false,true,Thamel, ,"Kathmandu 1764, ",27.7153902,85.3123293
Chhaimale Resort, 3639,Expedia,20,4,https://www.tripadvisor.com/Hotel_-g293890-d8090825--Chhaimale_Resort-Kathmandu_Kathmandu_Valley_Bagmati_Zone_Central_Region.html,true,false,true,false, ,"6 Ramche Bhanjyang, Chhaimale, 4 KM from Dakshinkali Temple","Kathmandu 44600, ",27.586979,85.25512
Le Rhododendron Chambres d'Hotes, 1536,Booking.com,31,4.5,https://www.tripadvisor.com/Hotel_-g293890-d3140028--Le_Rhododendron_Chambres_d_Hotes-Kathmandu_Kathmandu_Valley_Bagmati_Zone_Central_Regio.html,true,false,true,false,Naya Bazaar 640 Avenue Rue de Shahida Gangalal,Nirmal lama marg Mhepy,"Kathmandu 44600, ",26.9422096,88.0363086
Hotel Sisters Home, 1937,Expedia,7,4.5,https://www.tripadvisor.com/Hotel_-g293890-d6932267--Hotel_Sisters_Home-Kathmandu_Kathmandu_Valley_Bagmati_Zone_Central_Region.html,false,false,false,false,"Paryotanmarga-29, Thamel", ,"Kathmandu 44600, ",27.7153902,85.3123293
Hotel Everest Mount Holiday, 1995,Expedia,23,3.5,https://www.tripadvisor.com/Hotel_-g293890-d1637581--Hotel_Everest_Mount_Holiday-Kathmandu_Kathmandu_Valley_Bagmati_Zone_Central_Region.html,true,false,false,true,Chettrapati,Thamel,"Kathmandu 44600, ",27.7112473,85.3087748
Pal Rabten Khansar Guest House, 980,Expedia,24,4.5,https://www.tripadvisor.com/Hotel_-g293890-d1023254--Pal_Rabten_Khansar_Guest_House-Kathmandu_Kathmandu_Valley_Bagmati_Zone_Central_Region.html,true,false,false,true,Thamel district,P.o. Box No: 4377,"Kathmandu 44600, ",27.7153902,85.3123293
Traditional Comfort, 8414,Expedia,162,5,https://www.tripadvisor.com/Hotel_-g293890-d10591832--Traditional_Comfort-Kathmandu_Kathmandu_Valley_Bagmati_Zone_Central_Region.html,true,true,false,false,Kamalpokhari, ,"Kathmandu 44600, ",27.7111714,85.3255595
Hotel Friends Home, 2381,Booking.com,"1,402",5,https://www.tripadvisor.com/Hotel_-g293890-d3861343--Hotel_Friends_Home-Kathmandu_Kathmandu_Valley_Bagmati_Zone_Central_Region.html,true,true,false,false, ,"Chhushya Galli, Jyatha Road, Kantipur temple house is next to us.","Kathmandu 4600, ",27.711352,85.313079
Hotel Shanker, 5967,Booking.com,"1,308",4,https://www.tripadvisor.com/Hotel_-g293890-d308286--Hotel_Shanker-Kathmandu_Kathmandu_Valley_Bagmati_Zone_Central_Region.html,true,false,true,false, ,Lazimpat,"Kathmandu 44600, ",27.7215031,85.3200837
Kantipur Temple House, 6136,Booking.com,889,4.5,https://www.tripadvisor.com/Hotel_-g293890-d338257--Kantipur_Temple_House-Kathmandu_Kathmandu_Valley_Bagmati_Zone_Central_Region.html,true,false,false,true,"Chusyabahal, Jyatha Tol",Thamel,"Kathmandu 44600, ",27.7118151,85.3131469
Aria Boutique Hotel & Spa, 4358,Expedia,324,4.5,https://www.tripadvisor.com/Hotel_-g293890-d3726483--Aria_Boutique_Hotel_Spa-Kathmandu_Kathmandu_Valley_Bagmati_Zone_Central_Region.html,true,true,false,false,"JP Road, Thamel",Thamel,"Kathmandu 44600, ",27.7119715,85.3097835
Heritage Home Hotel & Guest House, 1283,Expedia,78,4.5,https://www.tripadvisor.com/Hotel_-g293890-d3198868--Heritage_Home_Hotel_Guest_House-Kathmandu_Kathmandu_Valley_Bagmati_Zone_Central_Region.html,true,false,false,true,"Sattghumti, Thamel", ,"Kathmandu 9771, ",27.7153902,85.3123293
Hotel Thamel, 2910,Booking.com,401,4,https://www.tripadvisor.com/Hotel_-g293890-d457088--Hotel_Thamel-Kathmandu_Kathmandu_Valley_Bagmati_Zone_Central_Region.html,true,true,false,false,Thamel Marg 723/28, ,"Kathmandu 44600, ",27.7143536,85.3113133
Thamel Eco Resort, 3101,Expedia,394,4,https://www.tripadvisor.com/Hotel_-g293890-d2081408--Thamel_Eco_Resort-Kathmandu_Kathmandu_Valley_Bagmati_Zone_Central_Region.html,true,true,false,false,"Chibahal, Thamel", ,"Kathmandu 44600, ",27.7132956,85.3111405
Hotel Ganesh Himal, 1967,Booking.com,685,4.5,https://www.tripadvisor.com/Hotel_-g293890-d799255--Hotel_Ganesh_Himal-Kathmandu_Kathmandu_Valley_Bagmati_Zone_Central_Region.html,true,false,false,true,Chhetrapati,Chhetrapati,"Kathmandu 44600, ",27.7112473,85.3087748
Hotel Silver Home, 984,Expedia,731,4.5,https://www.tripadvisor.com/Hotel_-g293890-d1539095--Hotel_Silver_Home-Kathmandu_Kathmandu_Valley_Bagmati_Zone_Central_Region.html,true,true,false,false,"Thamel, Chibahal", ,"Kathmandu 00977, ",27.7153902,85.3123293
Hotel Buddha, 2596,Booking.com,403,4.5,https://www.tripadvisor.com/Hotel_-g293890-d1885137--Hotel_Buddha-Kathmandu_Kathmandu_Valley_Bagmati_Zone_Central_Region.html,true,false,true,false,Chaksabari Marg-29,Thamel,"Kathmandu 44600, ",27.713508,85.310339
Crowne Plaza Kathmandu-Soaltee, 22055,Expedia,"1,016",4,https://www.tripadvisor.com/Hotel_-g293890-d299163--Crowne_Plaza_Kathmandu_Soaltee-Kathmandu_Kathmandu_Valley_Bagmati_Zone_Central_Region.html,false,false,true,false, , ,"Kathmandu 97, ",27.702874,85.3088333
Shangri-La Hotel Kathmandu, 9510,Hotels.com,525,3.5,https://www.tripadvisor.com/Hotel_-g293890-d310330--Shangri_La_Hotel_Kathmandu-Kathmandu_Kathmandu_Valley_Bagmati_Zone_Central_Region.html,true,false,true,false,Lazimpat,"Lazimpat, Road","Kathmandu 655, ",27.722715,85.3211019
Hotel Mums Home Pvt Ltd, 2273,Booking.com,827,5,https://www.tripadvisor.com/Hotel_-g293890-d5484795--Hotel_Mums_Home_Pvt_Ltd-Kathmandu_Kathmandu_Valley_Bagmati_Zone_Central_Region.html,true,false,true,false,"Chhusya Galli, Jyatha, Thamel",next to Kantipur Temple house,"Kathmandu 44600, ",27.711352,85.313079
Shambaling Boutique Hotel, 3934,Expedia,523,5,https://www.tripadvisor.com/Hotel_-g293890-d3396796--Shambaling_Boutique_Hotel-Kathmandu_Kathmandu_Valley_Bagmati_Zone_Central_Region.html,true,false,true,false,Near the great Boudha Stupa,Boudha,"Kathmandu 1001, ",27.7172453,85.3239605
Hyatt Regency Kathmandu, 13703,Booking.com,"1,783",4.5,https://www.tripadvisor.com/Hotel_-g293890-d305970--Hyatt_Regency_Kathmandu-Kathmandu_Kathmandu_Valley_Bagmati_Zone_Central_Region.html,false,false,true,false, ,"Taragaon, Boudha","Kathmandu 9609, ",27.721998,85.357229
Kathmandu Guest House, 4901,Expedia,"1,388",4,https://www.tripadvisor.com/Hotel_-g293890-d308288--Kathmandu_Guest_House-Kathmandu_Kathmandu_Valley_Bagmati_Zone_Central_Region.html,true,true,false,false,"no. 16 KGH Square, Ward", ,"Kathmandu 44600, ",27.7151329,85.3100489
Shree Tibet Family Guest House, 714,Booking.com,451,4.5,https://www.tripadvisor.com/Hotel_-g293890-d1224300--Shree_Tibet_Family_Guest_House-Kathmandu_Kathmandu_Valley_Bagmati_Zone_Central_Region.html,true,false,false,false,133 Thamel Bhagwati Marg,P.O.Box: 9299,"Kathmandu 44600, ",27.6919405,85.2945882
Ambassador Garden Home, 3440,Booking.com,715,4.5,https://www.tripadvisor.com/Hotel_-g293890-d1423502--Ambassador_Garden_Home-Kathmandu_Kathmandu_Valley_Bagmati_Zone_Central_Region.html,true,true,false,false,Thamel, ,"Kathmandu 9681, ",27.7153902,85.3123293
Hotel Shambala, 8544,Expedia,494,4.5,https://www.tripadvisor.com/Hotel_-g293890-d5970335--Hotel_Shambala-Kathmandu_Kathmandu_Valley_Bagmati_Zone_Central_Region.html,true,false,true,false,Bansbari Road,"Near Narayan Gopal Chowk, Maharajgunj","Kathmandu 44606, ",27.7414136,85.3383773
OYO 11477 Backyard Hotel, 1830,Expedia,640,4.5,https://www.tripadvisor.com/Hotel_-g293890-d2039307--OYO_11477_Backyard_Hotel-Kathmandu_Kathmandu_Valley_Bagmati_Zone_Central_Region.html,true,true,false,false,"Chibihal Street, Thamel",Thamel,"Kathmandu 44600, ",27.713192,85.311337
Trekkers' Home, 714,Booking.com,762,4.5,https://www.tripadvisor.com/Hotel_-g293890-d4341873--Trekkers_Home-Kathmandu_Kathmandu_Valley_Bagmati_Zone_Central_Region.html,true,false,false,true,Thamel, ,"Kathmandu 44600, ",27.7153902,85.3123293
Gokarna Forest Resort, 12183,Expedia,971,4.5,https://www.tripadvisor.com/Hotel_-g293890-d412080--Gokarna_Forest_Resort-Kathmandu_Kathmandu_Valley_Bagmati_Zone_Central_Region.html,false,true,true,false,Rajnikunj Gokarna, ,"Kathmandu 44600, ",27.7266369,85.3982869
Hotel Tibet, 7801,Expedia,520,4.5,https://www.tripadvisor.com/Hotel_-g293890-d338255--Hotel_Tibet-Kathmandu_Kathmandu_Valley_Bagmati_Zone_Central_Region.html,true,false,true,false,Lazimpat Rd, ,"Kathmandu 44600, ",27.722715,85.3211019
Radisson Hotel Kathmandu, 11767,Expedia,"1,201",4,https://www.tripadvisor.com/Hotel_-g293890-d305973--Radisson_Hotel_Kathmandu-Kathmandu_Kathmandu_Valley_Bagmati_Zone_Central_Region.html,true,false,true,false,Lazimpat, ,"Kathmandu 2269, ",27.7202186,85.3209287
Dalai-La Boutique Hotel, 8029,Expedia,650,5,https://www.tripadvisor.com/Hotel_-g293890-d7138276--Dalai_La_Boutique_Hotel-Kathmandu_Kathmandu_Valley_Bagmati_Zone_Central_Region.html,true,true,false,false,Chaksibari Marg,Thamel,"Kathmandu 44600, ",27.7151898,85.3103681
Hotel Tibet International, 9968,Expedia,656,4.5,https://www.tripadvisor.com/Hotel_-g293890-d2338446--Hotel_Tibet_International-Kathmandu_Kathmandu_Valley_Bagmati_Zone_Central_Region.html,true,false,true,false,Boudha, ,"Kathmandu 44600, ",27.7213539,85.3692628
Hotel Annapurna, 11263,Expedia,599,4,https://www.tripadvisor.com/Hotel_-g293890-d304701--Hotel_Annapurna-Kathmandu_Kathmandu_Valley_Bagmati_Zone_Central_Region.html,true,false,true,false, , ,"Kathmandu 14229, ",27.7172453,85.3239605
Kantipur Temple House, 6762,Booking.com,889,4.5,https://www.tripadvisor.com/Hotel_-g293890-d338257--Kantipur_Temple_House-Kathmandu_Kathmandu_Valley_Bagmati_Zone_Central_Region.html,true,false,false,true,"Chusyabahal, Jyatha Tol",Thamel,"Kathmandu 44600, ",27.7118151,85.3131469
Tibet Peace Inn, 1552,Booking.com,378,5,https://www.tripadvisor.com/Hotel_-g293890-d7360353--Tibet_Peace_Inn-Kathmandu_Kathmandu_Valley_Bagmati_Zone_Central_Region.html,true,true,false,false, ,"Paknajol, Thamel","Kathmandu 44600, ",27.7180528,85.3083658
Norbulinka Boutique Hotel, 2885,Expedia,265,4.5,https://www.tripadvisor.com/Hotel_-g293890-d457083--Norbulinka_Boutique_Hotel-Kathmandu_Kathmandu_Valley_Bagmati_Zone_Central_Region.html,true,false,true,false,"Hiti Road, Nepal",Thamel,"Kathmandu 44600, ",27.717333,85.312066
Hotel The Great Wall, 1420,Expedia,192,4.5,https://www.tripadvisor.com/Hotel_-g293890-d1674237--Hotel_The_Great_Wall-Kathmandu_Kathmandu_Valley_Bagmati_Zone_Central_Region.html,true,false,false,true,Thamel Marg,Next to Hotel Backyard,"Kathmandu 977, ",27.7177006,85.3101486
Hotel Nepalaya, 1566,Booking.com,660,4.5,https://www.tripadvisor.com/Hotel_-g293890-d2205706--Hotel_Nepalaya-Kathmandu_Kathmandu_Valley_Bagmati_Zone_Central_Region.html,true,false,true,false,Thamel Marg 17,Kwabahal,"Kathmandu 21292, ",27.710886,85.311391
Potala Tourist Home, 1176,Booking.com,128,4.5,https://www.tripadvisor.com/Hotel_-g293890-d3241470--Potala_Tourist_Home-Kathmandu_Kathmandu_Valley_Bagmati_Zone_Central_Region.html,true,false,false,true,Tredevi Marg,Thamel,"Kathmandu 44600, ",27.7139661,85.3138562
Hotel Mi Casa, 4746,Booking.com,549,5,https://www.tripadvisor.com/Hotel_-g293890-d6216125--Hotel_Mi_Casa-Kathmandu_Kathmandu_Valley_Bagmati_Zone_Central_Region.html,true,true,false,false,"Thamel-29, Tridevi Marg", ,"Kathmandu 44600, ",27.7139661,85.3138562
Hotel Osho Home, 2170,Booking.com,455,5,https://www.tripadvisor.com/Hotel_-g293890-d7208497--Hotel_Osho_Home-Kathmandu_Kathmandu_Valley_Bagmati_Zone_Central_Region.html,true,true,false,false,Chhusya Galli,"Jyatha, Thamel","Kathmandu 44600, ",27.7115146,85.3131268
Shree Tibet Family Guest House, 802,Booking.com,451,4.5,https://www.tripadvisor.com/Hotel_-g293890-d1224300--Shree_Tibet_Family_Guest_House-Kathmandu_Kathmandu_Valley_Bagmati_Zone_Central_Region.html,true,false,false,false,133 Thamel Bhagwati Marg,P.O.Box: 9299,"Kathmandu 44600, ",27.6919405,85.2945882
Thorong Peak Guest House, 2470,Booking.com,150,4.5,https://www.tripadvisor.com/Hotel_-g293890-d2079042--Thorong_Peak_Guest_House-Kathmandu_Kathmandu_Valley_Bagmati_Zone_Central_Region.html,true,false,false,true,29 Thamel,Narsingh Chowk,"Kathmandu 44600, ",27.713535,85.3109209
Elbrus Home, 1164,Booking.com,390,4.5,https://www.tripadvisor.com/Hotel_-g293890-d1224573--Elbrus_Home-Kathmandu_Kathmandu_Valley_Bagmati_Zone_Central_Region.html,true,true,false,false,Thamel,Golkopacka,"Kathmandu 44600, ",27.712425,85.313016
Hotel Atlantic Nepal, 2125,Booking.com,129,4.5,https://www.tripadvisor.com/Hotel_-g293890-d7389745--Hotel_Atlantic_Nepal-Kathmandu_Kathmandu_Valley_Bagmati_Zone_Central_Region.html,true,false,true,false,"Tridevi Marg, Thamel, Kathmandu, Nepal", ,"Kathmandu 44600, ",27.7139661,85.3138562
Hotel Yala Peak, 871,Expedia,177,4.5,https://www.tripadvisor.com/Hotel_-g293890-d4799362--Hotel_Yala_Peak-Kathmandu_Kathmandu_Valley_Bagmati_Zone_Central_Region.html,true,false,false,true,"Thamel-12, Kawabahal", ,"Kathmandu 44600, ",27.7153902,85.3123293
Kathmandu Eco Hotel, 3039,Booking.com,784,5,https://www.tripadvisor.com/Hotel_-g293890-d3656307--Kathmandu_Eco_Hotel-Kathmandu_Kathmandu_Valley_Bagmati_Zone_Central_Region.html,true,true,false,false,Thamel, ,"Kathmandu 44600, ",27.7153902,85.3123293
Hotel Pilgrims Pvt. Ltd., 2631,Booking.com,209,4.5,https://www.tripadvisor.com/Hotel_-g293890-d5113587--Hotel_Pilgrims_Pvt_Ltd-Kathmandu_Kathmandu_Valley_Bagmati_Zone_Central_Region.html,true,false,false,true,Z Street,Thamel,"Kathmandu 44600, ",27.7167975,85.3095476
Gaju Suite Hotel, 3114,Expedia,490,4.5,https://www.tripadvisor.com/Hotel_-g293890-d3536503--Gaju_Suite_Hotel-Kathmandu_Kathmandu_Valley_Bagmati_Zone_Central_Region.html,true,false,true,false,"A One Complex, 3rd and 4th Floor, Thamel Marg", ,"Kathmandu 44600, ",27.716441,85.311877
Hotel Happy Home, 1724,Booking.com,536,4.5,https://www.tripadvisor.com/Hotel_-g293890-d3914005--Hotel_Happy_Home-Kathmandu_Kathmandu_Valley_Bagmati_Zone_Central_Region.html,true,true,false,false,"17, JP Road Thamel", ,"Kathmandu 10356, ",27.7119715,85.3097835
Andes House, 1661,Booking.com,291,4.5,https://www.tripadvisor.com/Hotel_-g293890-d7396003--Andes_House-Kathmandu_Kathmandu_Valley_Bagmati_Zone_Central_Region.html,true,true,false,false,"Ga-Hiti Marg, Thamel - 29, Kathmandu", ,"Kathmandu 00977, ",27.7168695,85.3125943
Kathmandu City Hotel, 2381,Expedia,243,4.5,https://www.tripadvisor.com/Hotel_-g293890-d5894519--Kathmandu_City_Hotel-Kathmandu_Kathmandu_Valley_Bagmati_Zone_Central_Region.html,true,true,false,false,Ward No 29 Bhagwatimarga,Thamel,"Kathmandu 44600, ",27.7184512,85.3150889
Alpine Hotel & Apartment, 1893,Expedia,359,5,https://www.tripadvisor.com/Hotel_-g293890-d6996491--Alpine_Hotel_Apartment-Kathmandu_Kathmandu_Valley_Bagmati_Zone_Central_Region.html,true,true,false,false,Chaksibari Marg,Thamel,"Kathmandu 44600, ",27.7151898,85.3103681
Avataar Kathmandu Hotel, 3089,Expedia,284,4.5,https://www.tripadvisor.com/Hotel_-g293890-d7104800--Avataar_Kathmandu_Hotel-Kathmandu_Kathmandu_Valley_Bagmati_Zone_Central_Region.html,true,true,false,false,"Z-Street, Kumari Marg, Thamel", ,"Kathmandu 44600, ",27.7135295,85.3133534
The Sparkling Turtle Backpackers Hostel, 1237,Booking.com,234,4.5,https://www.tripadvisor.com/Hotel_-g293890-d2258723--The_Sparkling_Turtle_Backpackers_Hostel-Kathmandu_Kathmandu_Valley_Bagmati_Zone_Centra.html,true,true,false,false,15 Swoyambhu,Buddha Park,"Kathmandu 44600, ",27.7147791,85.2903796
Kathmandu Madhuban Guest House, 1058,Booking.com,345,4.5,https://www.tripadvisor.com/Hotel_-g293890-d457094--Kathmandu_Madhuban_Guest_House-Kathmandu_Kathmandu_Valley_Bagmati_Zone_Central_Region.html,true,false,true,false,Pakanajol Road,Thamel,"Kathmandu 44600, ",27.712653,85.308762
Swayambhu View Guest House, 1746,Booking.com,88,5,https://www.tripadvisor.com/Hotel_-g293890-d6592069--Swayambhu_View_Guest_House-Kathmandu_Kathmandu_Valley_Bagmati_Zone_Central_Region.html,true,false,true,false,"Devithan Galli st., 600/179","Swayambhu, Kimdol Road","Kathmandu 44600, ",27.711694,85.287906
Hostel Fireflies, 679,Booking.com,139,4.5,https://www.tripadvisor.com/Hotel_-g293890-d7185888--Hostel_Fireflies-Kathmandu_Kathmandu_Valley_Bagmati_Zone_Central_Region.html,true,false,false,true,"No. 179 Paknajol Marg, House",Ward No.16 next to Nilgiri Public School,"Kathmandu 44600, ",27.7173073,85.3082693
Hotel Access Nepal, 3972,Booking.com,366,4.5,https://www.tripadvisor.com/Hotel_-g293890-d3383979--Hotel_Access_Nepal-Kathmandu_Kathmandu_Valley_Bagmati_Zone_Central_Region.html,true,true,false,false,Chaksibari Marga,Thamel,"Kathmandu 44600, ",27.714966,85.31027
Stupa Guest House and Restaurant, 744,Booking.com,169,4.5,https://www.tripadvisor.com/Hotel_-g293890-d4816605--Stupa_Guest_House_and_Restaurant-Kathmandu_Kathmandu_Valley_Bagmati_Zone_Central_Regio.html,true,false,false,true,"Thahity, Thamel", ,"Kathmandu 19880, ",27.7107696,85.3108752
Hotel Amaryllis, 2178,Booking.com,394,5,https://www.tripadvisor.com/Hotel_-g293890-d6637738--Hotel_Amaryllis-Kathmandu_Kathmandu_Valley_Bagmati_Zone_Central_Region.html,true,false,true,false,"Tridevi Marg, Thamel", ,"Kathmandu 44600, ",27.7139661,85.3138562
Dormitory Nepal, 970,Booking.com,90,5,https://www.tripadvisor.com/Hotel_-g293890-d7622088--Dormitory_Nepal-Kathmandu_Kathmandu_Valley_Bagmati_Zone_Central_Region.html,true,false,false,false, ,"Geetanjali Marg, Baluwatar","Kathmandu 44616, ",27.7254865,85.3297752
Kantipur Temple House, 6762,Booking.com,889,4.5,https://www.tripadvisor.com/Hotel_-g293890-d338257--Kantipur_Temple_House-Kathmandu_Kathmandu_Valley_Bagmati_Zone_Central_Region.html,true,false,false,true,"Chusyabahal, Jyatha Tol",Thamel,"Kathmandu 44600, ",27.7118151,85.3131469
Aryatara Kathmandu Hotel, 3391,Booking.com,639,5,https://www.tripadvisor.com/Hotel_-g293890-d7614463--Aryatara_Kathmandu_Hotel-Kathmandu_Kathmandu_Valley_Bagmati_Zone_Central_Region.html,true,false,true,false,Keshar Mahal Marg,Thamel,"Kathmandu 44600, ",27.7149246,85.3140593
Hotel Tibet, 7801,Expedia,520,4.5,https://www.tripadvisor.com/Hotel_-g293890-d338255--Hotel_Tibet-Kathmandu_Kathmandu_Valley_Bagmati_Zone_Central_Region.html,true,false,true,false,Lazimpat Rd, ,"Kathmandu 44600, ",27.722715,85.3211019
Oasis Kathmandu Hotel, 3699,Booking.com,517,5,https://www.tripadvisor.com/Hotel_-g293890-d12473656--Oasis_Kathmandu_Hotel-Kathmandu_Kathmandu_Valley_Bagmati_Zone_Central_Region.html,true,false,true,false,Keshar Mahal Marg,Thamel,"Kathmandu 44600, ",27.7149246,85.3140593
Lemon Tree Hotel, 2134,Expedia,163,5,https://www.tripadvisor.com/Hotel_-g293890-d9771236--Lemon_Tree_Hotel-Kathmandu_Kathmandu_Valley_Bagmati_Zone_Central_Region.html,true,false,true,false,94 Shree Ratna Marg,"Paknajol, Thamel","Kathmandu 44600, ",27.71735,85.3094639
Kasthamandap Boutique Hotel, 4366,Expedia,193,5,https://www.tripadvisor.com/Hotel_-g293890-d8730501--Kasthamandap_Boutique_Hotel-Kathmandu_Kathmandu_Valley_Bagmati_Zone_Central_Region.html,true,true,false,false,"Chhusya Galli, Jyatha, Thamel", ,"Kathmandu 44600, ",27.7115146,85.3131268
Kathmandu Boutique Hotel, 1189,Expedia,392,5,https://www.tripadvisor.com/Hotel_-g293890-d7165990--Kathmandu_Boutique_Hotel-Kathmandu_Kathmandu_Valley_Bagmati_Zone_Central_Region.html,true,true,false,false, , ,"Kathmandu 00977, ",27.7172453,85.3239605
Hotel Bliss International, 2822,Booking.com,296,4.5,https://www.tripadvisor.com/Hotel_-g293890-d7185178--Hotel_Bliss_International-Kathmandu_Kathmandu_Valley_Bagmati_Zone_Central_Region.html,true,false,true,false,Chhusya Galli,"Jyatha, Thamel","Kathmandu 44600, ",27.7115146,85.3131268
Blue Mountain Homestay, 1351,Expedia,428,5,https://www.tripadvisor.com/Hotel_-g293890-d2421027--Blue_Mountain_Homestay-Kathmandu_Kathmandu_Valley_Bagmati_Zone_Central_Region.html,true,true,false,false,Galkopakah 29,Thamel Galkopaka,"Kathmandu 0977, ",27.7153902,85.3123293
Hotel Moonlight, 5112,Expedia,304,4.5,https://www.tripadvisor.com/Hotel_-g293890-d654253--Hotel_Moonlight-Kathmandu_Kathmandu_Valley_Bagmati_Zone_Central_Region.html,true,false,true,false,"Paknajol, Thamel", ,"Kathmandu 6667, ",27.716776,85.308618
Asmita Bed & Breakfast, 1096,Booking.com,157,4.5,https://www.tripadvisor.com/Hotel_-g293890-d1572983--Asmita_Bed_Breakfast-Kathmandu_Kathmandu_Valley_Bagmati_Zone_Central_Region.html,true,true,false,false,Lekhnath Marg,Thamel,"Kathmandu 44600, ",27.717805,85.311344
Hotel Holy Himalaya, 4404,Expedia,436,4,https://www.tripadvisor.com/Hotel_-g293890-d778809--Hotel_Holy_Himalaya-Kathmandu_Kathmandu_Valley_Bagmati_Zone_Central_Region.html,true,true,false,false,Brahmakumari Marg, ,"Kathmandu 97701, ",27.7127279,85.3127273
Traditional Comfort, 10407,Expedia,162,5,https://www.tripadvisor.com/Hotel_-g293890-d10591832--Traditional_Comfort-Kathmandu_Kathmandu_Valley_Bagmati_Zone_Central_Region.html,true,true,false,false,Kamalpokhari, ,"Kathmandu 44600, ",27.7111714,85.3255595
Hotel Mulberry, 11447,Expedia,104,5,https://www.tripadvisor.com/Hotel_-g293890-d12294192--Hotel_Mulberry-Kathmandu_Kathmandu_Valley_Bagmati_Zone_Central_Region.html,true,false,true,false,"Jyatha, Thamel", ,"Kathmandu 44600, ",27.7117549,85.3129755
At Home Nepal Guest House, 3391,Expedia,92,5,https://www.tripadvisor.com/Hotel_-g293890-d3198001--At_Home_Nepal_Guest_House-Kathmandu_Kathmandu_Valley_Bagmati_Zone_Central_Region.html,true,true,false,false,Jamsikhel, ,"Kathmandu 44600, ",27.6828555,85.3019883
M Hotel Thamel-Kathmandu, 2976,Booking.com,141,5,https://www.tripadvisor.com/Hotel_-g293890-d12248752--M_Hotel_Thamel_Kathmandu-Kathmandu_Kathmandu_Valley_Bagmati_Zone_Central_Region.html,true,true,false,false,"M Hotel Thamel-Kathamndu, 19/29 Kumari Marg, Jyatha",Thamel,"Kathmandu 44600, ",27.7135295,85.3133534
Kumari Boutique Hotel, 3951,Booking.com,106,5,https://www.tripadvisor.com/Hotel_-g293890-d13592608--Kumari_Boutique_Hotel-Kathmandu_Kathmandu_Valley_Bagmati_Zone_Central_Region.html,true,false,true,false,27 Chhusya Galli Jayatha,Jyatha Thamel,"Kathmandu 44600, ",27.710934,85.313046
Kathmandu Suite Home, 3777,Agoda.com,85,5,https://www.tripadvisor.com/Hotel_-g293890-d12872972--Kathmandu_Suite_Home-Kathmandu_Kathmandu_Valley_Bagmati_Zone_Central_Region.html,true,true,false,false,Paknajol Marg,Thamel,"Kathmandu 44600, ",27.7149996,85.3085206
Bodhi Guest House, 1292,Expedia,127,5,https://www.tripadvisor.com/Hotel_-g293890-d7110244--Bodhi_Guest_House-Kathmandu_Kathmandu_Valley_Bagmati_Zone_Central_Region.html,true,true,false,false,16 Boudha,Boudha,"Kathmandu 44600, ",27.7219003,85.3732524
Thamel Backpackers Home, 1195,Booking.com,112,5,https://www.tripadvisor.com/Hotel_-g293890-d12837878--Thamel_Backpackers_Home-Kathmandu_Kathmandu_Valley_Bagmati_Zone_Central_Region.html,true,false,true,false,29 Galkopakha, ,"Kathmandu 44600, ",27.7192952,85.3124768
Hotel Tibet International, 9968,Expedia,656,4.5,https://www.tripadvisor.com/Hotel_-g293890-d2338446--Hotel_Tibet_International-Kathmandu_Kathmandu_Valley_Bagmati_Zone_Central_Region.html,true,false,true,false,Boudha, ,"Kathmandu 44600, ",27.7213539,85.3692628
Hotel Buddy, 4546,Booking.com,82,5,https://www.tripadvisor.com/Hotel_-g293890-d12811837--Hotel_Buddy-Kathmandu_Kathmandu_Valley_Bagmati_Zone_Central_Region.html,true,false,true,false,Amrit Marg,Manang Plaza,"Kathmandu 44600, ",27.7146919,85.3126322
Andes Hotel, 1398,Booking.com,140,5,https://www.tripadvisor.com/Hotel_-g293890-d8626239--Andes_Hotel-Kathmandu_Kathmandu_Valley_Bagmati_Zone_Central_Region.html,true,false,true,false,Paknajol, ,"Kathmandu 44600, ",27.718015,85.308888
Truly Asia Boutique Hotel, 2881,Booking.com,181,5,https://www.tripadvisor.com/Hotel_-g293890-d12123749--Truly_Asia_Boutique_Hotel-Kathmandu_Kathmandu_Valley_Bagmati_Zone_Central_Region.html,true,true,false,false,J.P Marg,Thamel,"Kathmandu 44600, ",27.7119715,85.3097835
Thamel Grand Hotel, 2581,Booking.com,155,4,https://www.tripadvisor.com/Hotel_-g293890-d6468795--Thamel_Grand_Hotel-Kathmandu_Kathmandu_Valley_Bagmati_Zone_Central_Region.html,true,false,false,true,Thamel, ,"Kathmandu 44600, ",27.7153902,85.3123293
Hotel Travelers Home, 1427,Expedia,196,4.5,https://www.tripadvisor.com/Hotel_-g293890-d6017984--Hotel_Travelers_Home-Kathmandu_Kathmandu_Valley_Bagmati_Zone_Central_Region.html,true,true,false,false,"JP Marg, JP Road", ,"Kathmandu 00977, ",27.7119715,85.3097835
Rokpa Guest House, 4933,TripAdvisor,161,5,https://www.tripadvisor.com/Hotel_-g293890-d4345383--Rokpa_Guest_House-Kathmandu_Kathmandu_Valley_Bagmati_Zone_Central_Region.html,true,false,false,true,Boudha, ,"Kathmandu 44600, ",27.7213539,85.3692628
Hotel Yambu, 2822,TripAdvisor,651,5,https://www.tripadvisor.com/Hotel_-g293890-d3210915--Hotel_Yambu-Kathmandu_Kathmandu_Valley_Bagmati_Zone_Central_Region.html,true,false,true,false,"Lekhnath Marg, Lainchour, Thamel","Thamel,","Kathmandu 44600, ",27.717805,85.311344
Traditional Comfort, 10407,Expedia,162,5,https://www.tripadvisor.com/Hotel_-g293890-d10591832--Traditional_Comfort-Kathmandu_Kathmandu_Valley_Bagmati_Zone_Central_Region.html,true,true,false,false,Kamalpokhari, ,"Kathmandu 44600, ",27.7111714,85.3255595
Hotel Dream City (P) Ltd., 2451,Booking.com,142,5,https://www.tripadvisor.com/Hotel_-g293890-d8700379--Hotel_Dream_City_P_Ltd-Kathmandu_Kathmandu_Valley_Bagmati_Zone_Central_Region.html,true,false,true,false,"Paknajol Marg-16, Thamel",Near to The Chhetrapati Roundabout,"Kathmandu 44600, ",27.7123719,85.3087739
Fairfield by Marriott Kathmandu, 8336,Booking.com,210,4.5,https://www.tripadvisor.com/Hotel_-g293890-d12182022--Fairfield_by_Marriott_Kathmandu-Kathmandu_Kathmandu_Valley_Bagmati_Zone_Central_Regio.html,true,false,true,false,Tridevi Marg,"KMC- 29, Thamel","Kathmandu 44600, ",27.7139661,85.3138562
Hotel Peace N Park, 1147,Booking.com,168,4.5,https://www.tripadvisor.com/Hotel_-g293890-d5521768--Hotel_Peace_N_Park-Kathmandu_Kathmandu_Valley_Bagmati_Zone_Central_Region.html,true,true,false,false,Thamel, ,"Kathmandu 0977, ",27.7153902,85.3123293
Bag Packer's Lodge, 1111,Booking.com,208,4.5,https://www.tripadvisor.com/Hotel_-g293890-d1932602--Bag_Packer_s_Lodge-Kathmandu_Kathmandu_Valley_Bagmati_Zone_Central_Region.html,true,false,false,true,29 Chaksibari Marg,Center Thamel,"Kathmandu 44600, ",27.7161714,85.3101746
Mandala Boutique Hotel, 4635,Expedia,105,4.5,https://www.tripadvisor.com/Hotel_-g293890-d7315461--Mandala_Boutique_Hotel-Kathmandu_Kathmandu_Valley_Bagmati_Zone_Central_Region.html,true,false,true,false,"Dhobi Chaur, Chetrapati",Thamel,"Kathmandu 00977, ",27.71176,85.307974
Zostel Kathmandu, 2536,Booking.com,110,4.5,https://www.tripadvisor.com/Hotel_-g293890-d12480165--Zostel_Kathmandu-Kathmandu_Kathmandu_Valley_Bagmati_Zone_Central_Region.html,true,false,false,true,16 Paknajol Marg, ,"Kathmandu 44600, ",27.7117299,85.3086509
Hotel Ambassador by ACE Hotels, 8391,Hotels.com,60,5,https://www.tripadvisor.com/Hotel_-g293890-d12081067--Hotel_Ambassador_by_ACE_Hotels-Kathmandu_Kathmandu_Valley_Bagmati_Zone_Central_Region.html,true,false,true,false,Lazimpat, ,"Kathmandu 44600, ",27.7215031,85.3200837
Hotel Arts Kathmandu, 4699,Booking.com,225,4.5,https://www.tripadvisor.com/Hotel_-g293890-d9466351--Hotel_Arts_Kathmandu-Kathmandu_Kathmandu_Valley_Bagmati_Zone_Central_Region.html,true,true,false,false,Chaksibari Marg,Thamel,"Kathmandu 44600, ",27.7151898,85.3103681
Hotel Green Orchid, 1053,Booking.com,178,4.5,https://www.tripadvisor.com/Hotel_-g293890-d3210967--Hotel_Green_Orchid-Kathmandu_Kathmandu_Valley_Bagmati_Zone_Central_Region.html,true,true,false,false,"Paknajol, Thamel", ,"Kathmandu 44600, ",27.7180528,85.3083658
Hotel Bright Star, 794,Booking.com,109,4.5,https://www.tripadvisor.com/Hotel_-g293890-d3786163--Hotel_Bright_Star-Kathmandu_Kathmandu_Valley_Bagmati_Zone_Central_Region.html,true,false,false,false,"Ga Hiti Marg, Thamel", ,"Kathmandu 44600, ",27.7168695,85.3125943
Apsara Boutique Hotel, 4019,Expedia,217,4.5,https://www.tripadvisor.com/Hotel_-g293890-d8872671--Apsara_Boutique_Hotel-Kathmandu_Kathmandu_Valley_Bagmati_Zone_Central_Region.html,true,false,true,false,29 Thamel, ,"Kathmandu 44600, ",27.713535,85.3109209
Hotel Jay Suites, 2674,Booking.com,192,4.5,https://www.tripadvisor.com/Hotel_-g293890-d10415830--Hotel_Jay_Suites-Kathmandu_Kathmandu_Valley_Bagmati_Zone_Central_Region.html,true,true,false,false,Chhusya Galli,"Jyatha, Thamel -30","Kathmandu 12486, ",27.7115146,85.3131268
Kathmandu Home Nepal, 2434,Booking.com,335,4.5,https://www.tripadvisor.com/Hotel_-g293890-d12194558--Kathmandu_Home_Nepal-Kathmandu_Kathmandu_Valley_Bagmati_Zone_Central_Region.html,true,false,true,false,"Jyatha, Thamel", ,"Kathmandu 44600, ",27.7117549,85.3129755
Highlander Inn, 2386,Booking.com,101,5,https://www.tripadvisor.com/Hotel_-g293890-d10624122--Highlander_Inn-Kathmandu_Kathmandu_Valley_Bagmati_Zone_Central_Region.html,true,true,false,false,"Chaksibari, Thamel",Thamel,"Kathmandu 44600, ",27.7138031,85.3101121
Hotel Heranya, 3334,Booking.com,113,4.5,https://www.tripadvisor.com/Hotel_-g293890-d7714021--Hotel_Heranya-Kathmandu_Kathmandu_Valley_Bagmati_Zone_Central_Region.html,true,false,true,false,"Tej Bhawan, 440 Uttar Dhoka",Lazimpat,"Kathmandu 44600, ",27.718885,85.320364
Yatri Suites and Spa, 6054,Booking.com,225,4.5,https://www.tripadvisor.com/Hotel_-g293890-d9844994--Yatri_Suites_and_Spa-Kathmandu_Kathmandu_Valley_Bagmati_Zone_Central_Region.html,true,true,false,false,Amrit Marg,Thamel,"Kathmandu 44600, ",27.7142364,85.3124167
The Address Kathmandu Hotel, 3454,Booking.com,210,4.5,https://www.tripadvisor.com/Hotel_-g293890-d10131656--The_Address_Kathmandu_Hotel-Kathmandu_Kathmandu_Valley_Bagmati_Zone_Central_Region.html,true,true,false,false,Thamel, ,"Kathmandu 44600, ",27.7153902,85.3123293
Maya Manor Boutique Hotel, 7468,Expedia,121,4.5,https://www.tripadvisor.com/Hotel_-g293890-d10266254--Maya_Manor_Boutique_Hotel-Kathmandu_Kathmandu_Valley_Bagmati_Zone_Central_Region.html,true,false,true,false,Palace Museum Road, ,"Kathmandu 44600, ",27.7138699,85.317939
Taleju Boutique Hotel, 4369,Agoda.com,154,4.5,https://www.tripadvisor.com/Hotel_-g293890-d11671092--Taleju_Boutique_Hotel-Kathmandu_Kathmandu_Valley_Bagmati_Zone_Central_Region.html,true,false,true,false,"Chhusya Galli, Jyatha, Thamel", ,"Kathmandu 44600, ",27.7115146,85.3131268
The Exotic House, 897,Booking.com,69,5,https://www.tripadvisor.com/Hotel_-g293890-d10364180--The_Exotic_House-Kathmandu_Kathmandu_Valley_Bagmati_Zone_Central_Region.html,true,false,false,false,"17 Saat Chowk, Dhobi Chaur", ,"Kathmandu 44600, ",27.7172633,85.346594
Hotel Kumari Inn, 3185,Expedia,77,5,https://www.tripadvisor.com/Hotel_-g293890-d3207815--Hotel_Kumari_Inn-Kathmandu_Kathmandu_Valley_Bagmati_Zone_Central_Region.html,true,false,true,false,"Basundhara, Dhapasi", ,"Kathmandu 44600, ",27.7458963,85.3293958
Karma Travellers Home, 1158,Booking.com,231,4.5,https://www.tripadvisor.com/Hotel_-g293890-d2089246--Karma_Travellers_Home-Kathmandu_Kathmandu_Valley_Bagmati_Zone_Central_Region.html,true,false,false,false,Thamel, ,"Kathmandu 44600, ",27.7153902,85.3123293
Shangri-la Boutique Hotel, 3108,Expedia,194,4,https://www.tripadvisor.com/Hotel_-g293890-d1570841--Shangri_la_Boutique_Hotel-Kathmandu_Kathmandu_Valley_Bagmati_Zone_Central_Region.html,true,true,false,false,Jyatha Thamel,Thamel,"Kathmandu 44600, ",27.7117549,85.3129755
Hotel Utse, 3588,Booking.com,164,4.5,https://www.tripadvisor.com/Hotel_-g293890-d316820--Hotel_Utse-Kathmandu_Kathmandu_Valley_Bagmati_Zone_Central_Region.html,true,false,true,false,"Jyatha, Thamel", ,"Kathmandu 44600, ",27.7117549,85.3129755
Hotel Manang, 3648,Booking.com,443,4,https://www.tripadvisor.com/Hotel_-g293890-d338247--Hotel_Manang-Kathmandu_Kathmandu_Valley_Bagmati_Zone_Central_Region.html,true,false,true,false, , ,"Kathmandu 44601, ",27.7172453,85.3239605
